stop_id,stop_code,stop_name,stop_desc,stop_lat,stop_lon,zone_id,stop_url,location_type,parent_station
1,1001511,"KL Sentral, Jalan Stesen Sentral 3",,3.133604,101.686874,1,,0,
2,1002492,"Petronas (opp.), Jalan Tun Sambanthan",,3.135682,101.689865,1,,0,
3,1000531,"Dayabumi, Jalan Tun Sambanthan",,3.142201,101.694595,1,,0,
4,1001096,"Central Market, Jalan Tun Tan Cheng Lock",,3.144384,101.69521,1,,0,
5,1001672,"Kota Raya, Jalan Tun Tan Cheng Lock",,3.145496,101.69813,1,,0,
6,1000934,"Hospital Tung Shin, Jalan Pudu",,3.145222,101.70462,1,,0,
7,1000953,"Alliance Bank, Jalan Pudu",,3.144655,101.705864,1,,0,
8,1002643,"Penjara Pudu, Jalan Hang Tuah",,3.141537,101.707375,1,,0,
9,1000718,"Flat Kenanga, Jalan Hang Tuah",,3.138784,101.70512,1,,0,
10,1001536,"Flat Loke Yew, Jalan Loke Yew",,3.135819,101.70516,1,,0,
11,1000723,"Shell Loke Yew, Jalan Loke Yew",,3.13332,101.70753,1,,0,
12,1001038,"SRJK ( C ) Chung Hwa, Jalan Loke Yew",,3.132104,101.70869,1,,0,
13,1000494,"Classic, Jalan Loke Yew",,3.130187,101.710594,1,,0,
14,1001814,"Fajar Sungai Besi, Jalan Sungai Besi",,3.130204,101.71218,1,,0,
15,1004250,"Stesen LRT Pudu, Jalan Sungai Besi",,3.133382,101.7129,1,,0,
16,1002287,"Pasar Pudu (opp.), Jalan Pasar",,3.135169,101.71475,1,,0,
17,1001306,"Kedai Letrik (opp.), Jalan Pasar",,3.135237,101.71668,1,,0,
18,1003344,"SMK Cochrane, Jalan Cochrane",,3.133855,101.72204,1,,0,
19,1001379,"Kelab Telekom, Jalan Cochrane",,3.132929,101.72536,1,,0,
20,1003879,"TM, Jalan Cochrane",,3.131661,101.72994,1,,0,
21,1001968,"Maybank, Jalan Mahkota",,3.129633,101.73197,1,,0,
22,1001607,"Kolej Teknologi YPG, Jalan Mahkota",,3.128335,101.73271,1,,0,
24,1003900,"Hab Bas Maluri, Jalan Cheras",,3.124039,101.727844,1,,0,
25,1000276,"Kompleks MAKSAK, Jalan Cheras",,3.119173,101.728386,1,,0,
26,1002248,"Puteri Islam Malaysia, Jalan Cheras",,3.116824,101.728355,1,,0,
27,1000783,"Flat Sri Sabah, Jalan Cheras",,3.116754,101.727905,1,,0,
28,1003671,"Stadium Badminton, Jalan Cheras",,3.119351,101.728035,1,,0,
29,1001808,"Stesen LRT Maluri, Jalan Cheras",,3.123425,101.72777,1,,0,
30,1001206,"Jusco Maluri, Jalan Cheras",,3.125086,101.727,1,,0,
31,1001212,"Jusco Maluri, Jalan Jejaka",,3.125525,101.729004,1,,0,
32,1001132,Jalan Mahkota,,3.12728,101.73209,1,,0,
33,1001302,"Kedai Kulit Chai & Sons, Jalan Mahkota",,3.128276,101.73271,1,,0,
34,1002460,"Petronas Gas, Jalan Mahkota",,3.131445,101.729866,1,,0,
35,1001705,"Kuarters TM, Jalan Cochrane",,3.132154,101.72766,1,,0,
36,1002838,"Rumah 101, Jalan Cochrane",,3.132888,101.72476,1,,0,
37,1004242,"Wisma Indah, Jalan Cochrane",,3.134562,101.718735,1,,0,
38,1001307,"Kedai Letrik, Jalan Pasar",,3.135079,101.71675,1,,0,
39,1004251,"Wisma Pudu Emas, Jalan Sungai Besi",,3.132901,101.71297,1,,0,
41,1001039,"Selepas Bulatan Loke Yew, Jalan Loke Yew",,3.129172,101.7112,1,,0,
42,1001886,"Jejantas Flat Loke Yew, Jalan Hang Tuah",,3.133274,101.70722,1,,0,
43,1001885,"SMK Victoria, Jalan Hang Tuah",,3.138264,101.70446,1,,0,
44,1002058,"IPK Kuala Lumpur, Jalan Hang Tuah",,3.140983,101.706024,1,,0,
45,1000948,"Hotel Swiss Garden, Jalan Pudu",,3.144413,101.70555,1,,0,
47,1000532,"Pasar Seni Daya Bumi, Jalan Tun Tan Cheng Lock",,3.142606,101.69475,1,,0,
48,1000857,"TM, Jalan Tun Sambanthan",,3.137468,101.693245,1,,0,
49,1002076,"Muzium Negara (opp.), Jalan Travers",,3.137005,101.68805,1,,0,
50,1000071,"Caltex (opp.), Jalan Travers",,3.133556,101.68385,1,,0,
51,1003609,"Sri Kota (opp.), Jalan Travers",,3.13035,101.684235,1,,0,
52,1000968,"Hab Bas Titiwangsa, Jalan Tun Razak",,3.171996,101.69604,1,,0,
53,1002414,"Perkim (opp.), Jalan Ipoh",,3.171483,101.69321,1,,0,
54,1000514,"Hospital Damai, Jalan Ipoh",,3.170025,101.69528,1,,0,
55,1003247,"Shell, Jalan Ipoh",,3.167958,101.69757,1,,0,
56,1002104,"Institut Penyelidikan Perubatan, Jalan Raja Muda Abdul Aziz",,3.167583,101.699524,1,,0,
57,1004138,"Medan Selera Stadium Raja Muda, Jalan Raja Muda Abdul Aziz",,3.167964,101.704384,1,,0,
58,1003643,"SRK Raja Muda Abdul Aziz, Jalan Raja Muda Abdul Aziz",,3.168086,101.70736,1,,0,
59,1004274,"Yayasan Selangor, Jalan Raja Muda Abdul Aziz",,3.168104,101.70952,1,,0,
60,1002016,"Menara TH Selborn, Jalan Raja Muda Abdul Aziz",,3.167953,101.71104,1,,0,
61,1000758,"Flat PKNS Sungai Baru (opp.), Jalan Tun Razak",,3.166632,101.71459,1,,0,
62,1004279,"City Square, Jalan Tun Razak",,3.161576,101.71967,1,,0,
63,1000492,"Citibank, Jalan Ampang",,3.160399,101.717316,1,,0,
64,1002014,"Menara Atlan, Jalan Ampang",,3.159992,101.71584,1,,0,
65,1001518,"KLCC, Jalan Ampang",,3.159011,101.71236,1,,0,
66,1000094,"Angkasaraya, Jalan Ampang",,3.159082,101.709656,1,,0,
67,1002712,"Hotel Renaissance (opp.), Jalan Ampang",,3.1568,101.70551,1,,0,
71,1004245,"Wisma Lim Foo Yong, Jalan Raja Chulan",,3.150534,101.70895,1,,0,
74,1000958,"HSBC Bukit Bintang, Jalan Sultan Ismail",,3.147718,101.71085,1,,0,
78,1000998,"Hotel Impiana (opp.), Jalan Pinang",,3.153863,101.71173,1,,0,
79,1000649,"Exxon Mobil, Persiaran KLCC",,3.153796,101.71576,1,,0,
80,1001088,"The Binjai Condominium, Jalan Binjai",,3.154226,101.71732,1,,0,
81,1000077,"Ambank, Jalan Yap Kwan Seng",,3.160792,101.71098,1,,0,
82,1002764,"Restoran Kampung Pandan, Jalan Yap Kwan Seng",,3.162568,101.71374,1,,0,
83,1000757,"Flat PKNS Sungai Baru, Jalan Tun Razak",,3.166204,101.714615,1,,0,
84,1002484,"Petronas, Jalan Raja Muda Abdul Aziz",,3.167829,101.71126,1,,0,
85,1004273,"Yayasan Selangor (opp.), Jalan Raja Muda Abdul Aziz",,3.167832,101.70882,1,,0,
86,1003642,"Wisma Naza, Jalan Raja Muda Abdul Aziz",,3.167864,101.70649,1,,0,
87,1000945,"Stadium Raja Muda (opp.), Jalan Raja Muda Abdul Aziz",,3.167965,101.704506,1,,0,
88,1000946,"Hotel Putra Muda, Jalan Raja Muda Abdul Aziz",,3.167553,101.69944,1,,0,
89,1000887,"Hotel Grand Seasons, Jalan Pahang",,3.170168,101.69824,1,,0,
90,1000915,"Hospital Kuala Lumpur (opp.), Jalan Pahang",,3.172719,101.69904,1,,0,
91,1001170,"Pasar Seni, Jalan Sultan Mohamed",,3.143009,101.6956,1,,0,
92,1002080,"Mydin Sinar Kota, Jalan Tun Perak",,3.14676,101.698715,1,,0,
94,1000230,"Bank Negara Malaysia, Jalan Sultan Salahudin",,3.152077,101.69205,1,,0,
95,1001070,"JKR, Jalan Sultan Salahuddin",,3.153971,101.69043,1,,0,
96,1001411,"Kementerian Kerja Raya, Jalan Sultan Salahuddin",,3.155332,101.68834,1,,0,
97,1001173,"Jabatan Pengairan & Saliran, Jalan Sultan Salahuddin",,3.159013,101.68343,1,,0,
98,1001171,"Wisma Tani, Jalan Sultan Salahuddin",,3.157219,101.681564,1,,0,
99,1000597,"Lembaga Peperiksaan, Jalan Duta",,3.168806,101.670906,1,,0,
100,1001099,"Simpang Jalan Dutamas 1, Jalan Ibadah",,3.170517,101.67087,1,,0,
101,1001101,"Masjid Wilayah, Jalan Ibadah",,3.171925,101.6724,1,,0,
102,1001958,"Masjid Wilayah, Jalan Khidmat Usaha",,3.173763,101.67187,1,,0,
103,1001623,"Kompleks Mahkamah, Jalan Duta",,3.175848,101.67097,1,,0,
104,1001620,"Kompleks Kerajaan Jalan Duta, Jalan Khidmat Setia",,3.174636,101.67227,1,,0,
105,1001102,"Arkib Negara, Jalan Khidmat Setia",,3.175551,101.67474,1,,0,
106,1001115,"LHDN, Jalan Khidmat Setia",,3.17343,101.6737,1,,0,
107,1001100,"Stadium Hoki Duta, Jalan Duta",,3.169315,101.6715,1,,0,
108,1001375,"Kedutaan India, Jalan Duta",,3.158323,101.67123,1,,0,
109,1000598,"Duta Vista, Jalan Duta",,3.150836,101.6746,1,,0,
110,1001172,"Wisma Tani (opp.), Jalan Sultan Salahuddin",,3.159037,101.68244,1,,0,
111,1001071,"JKR (opp.), Jalan Sultan Salahuddin",,3.15415,101.69055,1,,0,
112,1000488,"CIMB, Jalan Tun Perak",,3.150702,101.695564,1,,0,
113,1001183,"Stesen LRT Masjid Jamek, Jalan Tun Perak",,3.149431,101.69642,1,,0,
114,1001673,"Kota Raya (opp.), Jalan Tun Tan Cheng Lock",,3.145338,101.69818,1,,0,
115,1001801,"Stesen LRT Gombak, Jalan Terminal Putra",,3.231027,101.724335,1,,0,
116,1001322,"Kedai Motor, Jalan Taman Melati 1/5",,3.227137,101.72537,1,,0,
117,1003572,"Shell MRR2 Gombak, MRR2",,3.233669,101.724464,1,,0,
118,1003525,"Simpang Mc Donald, Lebuh Utama Sri Gombak",,3.238131,101.699425,1,,0,
119,1000554,"Dewan Beringin, Lebuh Utama Sri Gombak",,3.239951,101.699486,1,,0,
120,1003881,"TM Sri Gombak (opp.), Jalan Makmur",,3.240774,101.701256,1,,0,
121,1000216,"Balairaya, Jalan Makmur",,3.240826,101.70332,1,,0,
122,1003500,"Simpang Jalan SG 4/9, Jalan Makmur",,3.240861,101.70707,1,,0,
123,1002956,"Rumah No. 67 Taman Sri Gombak Fasa 4, Jalan Makmur",,3.241988,101.7096,1,,0,
124,1003377,"SMK Hillcrest (opp.), Jalan Lintang",,3.242979,101.70751,1,,0,
125,1002583,"Poliklinik Jaya, Jalan Lintang",,3.242996,101.703224,1,,0,
126,1001916,"Taman Sri Gombak Fasa 6, Jalan Muhibbah",,3.244738,101.70209,1,,0,
127,1001950,"Masjid Sri Gombak (opp.), Jalan Muhibbah",,3.247436,101.70304,1,,0,
128,1003560,"Simpang Tasik, Jalan Permai",,3.248595,101.70543,1,,0,
129,1003796,"Tadika, Jalan Permai",,3.250032,101.70327,1,,0,
130,1003556,"Simpang Tadika (1), Jalan Permai",,3.248665,101.701454,1,,0,
131,1003779,"Tadika Cerdik Kurnia (opp.), Jalan Permai",,3.249252,101.6992,1,,0,
132,1003743,"Surau Ubudiah (opp.), Lebuh Utama Sri Gombak",,3.250291,101.69429,1,,0,
133,1000895,"Apartment Saujana Gombak, Lebuh Utama Sri Gombak",,3.250438,101.69116,1,,0,
134,1000141,"Kampung Wira Damai, Lebuh Utama Sri Gombak",,3.25137,101.68899,1,,0,
135,1000880,"Taman Gombak Permai, Jalan Gombak Permai 2",,3.251399,101.6862,1,,0,
136,1002132,"Hab Pinggiran Batu Caves, Jalan Gombak Permai 2",,3.25201,101.68473,1,,0,
137,1000881,"Pangsapuri Kenanga, Jalan Gombak Permai 2",,3.251329,101.68597,1,,0,
138,1002373,"Pangsapuri Cempaka, Lebuh Utama Sri Gombak",,3.251499,101.68913,1,,0,
139,1001532,"Klinik Hasnah, Lebuh Utama Sri Gombak",,3.250459,101.69176,1,,0,
140,1003607,"Pinggiran Batu Caves, Lebuh Utama Sri Gombak",,3.250482,101.693146,1,,0,
141,1003754,"Surau Ubudiah, Lebuh Utama Sri Gombak",,3.250425,101.69434,1,,0,
142,1003862,"Tadika Cerdik Kurnia, Jalan Permai",,3.249295,101.69951,1,,0,
143,1003557,"Simpang Tadika (2), Jalan Permai",,3.248876,101.70147,1,,0,
144,1002447,"Taman Sri Gombak Fasa 9, Jalan Permai",,3.250001,101.702896,1,,0,
145,1003559,"Simpang Tasik (opp.), Jalan Permai",,3.248983,101.7053,1,,0,
146,1001951,"Masjid Sri Gombak, Jalan Muhibbah",,3.246982,101.70277,1,,0,
147,1003439,"Taman Sri Gombak Fasa 7, Jalan Muhibbah",,3.24471,101.70223,1,,0,
148,1001585,"Kolej CQ Tech, Jalan Lintang",,3.243092,101.70403,1,,0,
149,1003376,"SMK Hillcrest, Jalan Lintang",,3.243059,101.707825,1,,0,
150,1002928,"No. 30 Taman Sri Gombak Fasa 5, Jalan Makmur",,3.242224,101.70974,1,,0,
152,1002474,"Petronas Taman Sri Gombak, Jalan Makmur",,3.24077,101.70344,1,,0,
153,1003882,"TM Sri Gombak, Jalan Makmur",,3.240583,101.7013,1,,0,
154,1000555,"Dewan Beringin (opp.), Lebuh Utama Sri Gombak",,3.239822,101.6997,1,,0,
155,1003526,"Simpang Mc Donald (opp.), Lebuh Utama Sri Gombak",,3.237363,101.69974,1,,0,
156,1003571,"Shell MRR2 Gombak (opp.), MRR2",,3.235798,101.72385,1,,0,
157,1001321,"Kedai Motor (opp.), Jalan Taman Melati 1/5",,3.226903,101.72535,1,,0,
158,1003974,"Taman Greenwood, Jalan Batu Caves",,3.234001,101.70626,1,,0,
159,1000863,"Giant (opp.), Jalan Taman Samudera",,3.235203,101.69553,1,,0,
160,1003592,"SRK Taman Samudera (opp.), Jalan Samudera Barat 1",,3.233006,101.694595,1,,0,
161,1000579,"Dewan UMNO, Jalan Samudera Barat 1",,3.233074,101.69123,1,,0,
162,1000002,"Tamil Nesan, Jalan Sri Batu Caves 5",,3.233603,101.68713,1,,0,
163,1001364,"Kedai Tayar (2), Jalan Sri Batu Caves 5",,3.233601,101.68471,1,,0,
164,1001507,"U&I Urban Designers, Jalan 1/6",,3.231241,101.684555,1,,0,
165,1001176,"Kilang Kian Joo, Jalan 1/6",,3.228242,101.68459,1,,0,
166,1000843,"Gerai Makan, Jalan Taman Batu Muda",,3.227789,101.68341,1,,0,
167,1001491,"Kilang Kian Joo (opp.), Jalan Perusahaan",,3.228845,101.68217,1,,0,
168,1002018,"Mercedes Benz, Jalan Perusahaan",,3.231728,101.68239,1,,0,
169,1002755,"APM, Jalan Perusahaan",,3.234001,101.68259,1,,0,
170,1001708,"Kuil Batu Caves, Jalan Batu Caves",,3.235641,101.67899,1,,0,
171,1001445,"Kampung Melayu Batu Caves, Jalan Batu Caves",,3.235514,101.67747,1,,0,
172,1001728,"Masjid Al Amaniah (opp.), Jalan Batu Caves",,3.235156,101.675156,1,,0,
173,1002356,"Pos Malaysia, Jalan Sungai Tua",,3.235988,101.67365,1,,0,
174,1003330,"SMK Seri Selayang, Jalan Sungai Tua",,3.241583,101.67335,1,,0,
175,1001167,"SMK Taman Selayang, Jalan Sungai Tua",,3.243622,101.67386,1,,0,
176,1001554,"Klinik Kesihatan Kecil, Jalan Sungai Tua",,3.245348,101.67403,1,,0,
177,1001635,"Dewan Sri Siantan MPS, Jalan Sungai Tua",,3.246273,101.67408,1,,0,
178,1000192,"Balai Penghulu, Jalan Sungai Tua",,3.248154,101.674484,1,,0,
179,1003566,"Simpang Tiga Nakhoda (1), Jalan Sungai Tua",,3.250498,101.675735,1,,0,
180,1002448,"Masjid Kampung Nakhoda (opp.), Jalan Nakhoda",,3.250053,101.67725,1,,0,
181,1001139,"Simpang Jalan Nakhoda Dalam, Jalan Nakhoda Kanan",,3.249446,101.67858,1,,0,
182,1001140,"Lorong Nakhoda 26 (opp.), Jalan Nakhoda Kanan",,3.249632,101.67929,1,,0,
183,1003261,"Simpang Jalan Nakhoda Kanan 1, Jalan Nakhoda Kanan",,3.250076,101.67997,1,,0,
184,1001142,"Simpang Jalan Nakhoda Kanan 2, Jalan Nakhoda Kanan",,3.250909,101.68224,1,,0,
185,1002449,"Kampung Nakhoda, Jalan Nakhoda Kanan",,3.252832,101.68341,1,,0,
186,1001143,"Kampung Nakhoda, Jalan Nakhoda Kiri",,3.253268,101.68242,1,,0,
187,1001141,"Simpang Nakhoda Kiri 3, Jalan Nakhoda Kiri",,3.253905,101.68047,1,,0,
188,1001726,"Kuzam Catering (opp.), Jalan Nakhoda Kiri",,3.25392,101.67988,1,,0,
189,1001145,"Simpang Jalan Nakhoda Kiri B3, Jalan Nakhoda Kiri",,3.252657,101.67831,1,,0,
190,1001144,"Simpang Jalan Nakhoda Kiri 1, Jalan Nakhoda Kiri",,3.251617,101.67704,1,,0,
191,1003565,"Simpang Tiga Nakhoda (2), Jalan Sungai Tua",,3.250321,101.67571,1,,0,
192,1004264,"Wisma Yati Ahmad, Jalan Sungai Tua",,3.249811,101.67531,1,,0,
193,1002584,"Klinik Zaini, Jalan Sungai Tua",,3.247785,101.67465,1,,0,
194,1001636,"Dewan Sri Siantan MPS (opp.), Jalan Sungai Tua",,3.246365,101.674385,1,,0,
195,1001555,"SMK Taman Selayang (opp.), Jalan Sungai Tua",,3.243346,101.67393,1,,0,
196,1003331,"SRK Taman Selayang (opp.), Jalan Sungai Tua",,3.24191,101.67355,1,,0,
197,1001166,"Pos Malaysia (opp.) (1), Jalan Sungai Tua",,3.241398,101.673515,1,,0,
199,1001892,"Masjid Al Amaniah, Jalan Batu Caves",,3.235277,101.67505,1,,0,
200,1001444,"Padang, Jalan Batu Caves",,3.235759,101.67738,1,,0,
201,1002756,"Restoran Insaf / APM, Jalan Perusahaan",,3.23395,101.68282,1,,0,
203,1001505,"Kilang Kian Joo, Jalan Perusahaan",,3.229262,101.68246,1,,0,
204,1001506,"Kilang Kian Joo, Jalan Taman Batu Muda",,3.227978,101.68351,1,,0,
205,1000844,"Gerai Makan, Jalan 1/6",,3.228367,101.684364,1,,0,
206,1001292,"Kedai, Jalan 1/6",,3.230956,101.68438,1,,0,
207,1001365,"Kedai Tayar (1), Jalan Sri Batu Caves 5",,3.233762,101.68508,1,,0,
208,1002362,"Tamil Nesan (Opp.), Jalan Sri Batu Caves 5",,3.233791,101.68775,1,,0,
209,1000580,"Dewan UMNO (opp.), Jalan Samudera Barat 1",,3.233232,101.690765,1,,0,
210,1001168,"Apartment Casmaria, Jalan Samudera Barat 1",,3.233234,101.6918,1,,0,
211,1003594,"SRK Taman Samudera, Jalan Samudera Barat 1",,3.23319,101.69387,1,,0,
212,1000862,"Giant, Jalan Taman Samudera",,3.235028,101.69537,1,,0,
213,1003951,"Taman Industri Bolton, Jalan TIB 1",,3.237136,101.696655,1,,0,
214,1003954,"Bengkel MPS Taman Industri Bolton (opp.), Jalan TIB 1",,3.240997,101.69724,1,,0,
215,1003950,"Kampung Gombak Indah (1), Jalan TIB 3",,3.243504,101.695625,1,,0,
216,1003948,"Kampung Gombak Indah (2), Jalan TIB 3",,3.245285,101.69399,1,,0,
217,1003949,"Surau Taman Bolton, Jalan TIB 2",,3.246313,101.69446,1,,0,
218,1003953,"Taman Bolton, Jalan TIB 2",,3.246304,101.6972,1,,0,
219,1003956,"Taman Industri Bolton (opp.), Jalan TIB 1",,3.244893,101.697464,1,,0,
220,1003957,"Kompleks Muhibbah Taman Industri Bolton (opp.), Jalan TIB 1",,3.242882,101.69747,1,,0,
221,1003955,"Bengkel MPS Taman Industri Bolton, Jalan TIB 1",,3.240459,101.69746,1,,0,
222,1003952,"Pekan Taman Sri Gombak, Jalan TIB 1",,3.237656,101.69689,1,,0,
223,1000479,"CIMB, Jalan Batu Caves",,3.236293,101.69851,1,,0,
224,1001831,"Stesen LRT Taman Melati, Persiaran Pertahanan",,3.219457,101.72153,1,,0,
225,1000721,"Flat Sri Langkawi, Jalan Madrasah",,3.219753,101.72082,1,,0,
226,1003746,"Surau Nurul Mustaqim, Jalan Madrasah",,3.218903,101.719734,1,,0,
227,1001351,"Kedai Runcit, Jalan Madrasah",,3.220263,101.71824,1,,0,
228,1003346,"SMK Gombak Setia (opp.), Jalan Dewan",,3.219088,101.71513,1,,0,
229,1000195,"Balai Polis Gombak, Jalan Gombak",,3.218594,101.71305,1,,0,
230,1002518,"Petronas Pejabat Pertanian, Jalan Gombak",,3.216814,101.713104,1,,0,
231,1000397,"Batu 5 Ong Tai Kim, Jalan Gombak",,3.213384,101.71187,1,,0,
233,1003601,"SRA Sungai Mulia, Jalan Gombak",,3.210947,101.70655,1,,0,
234,1002261,"Pasar Besar Gombak (opp.), Jalan Gombak",,3.209196,101.70466,1,,0,
235,1003575,"Simpang Setapak Garden, Jalan Gombak",,3.207514,101.70301,1,,0,
240,1002444,"Surau Setapak Garden, Jalan Jerejak",,3.206599,101.70769,1,,0,
241,1002443,"Nippon Paint, Jalan Cengal Selatan",,3.205958,101.710464,1,,0,
242,1002450,"Rumah No. 113, Jalan Cengal Selatan",,3.204441,101.71176,1,,0,
243,1001741,"Apartment Langkawi, Jalan Langkawi",,3.204796,101.714386,1,,0,
244,1000516,"My Mydin/Setapak Lake City (opp.), Jalan Langkawi",,3.206733,101.71709,1,,0,
245,1003248,"Shell Taman Ibu Kota (opp.), Jalan Taman Ibu Kota",,3.209178,101.71829,1,,0,
246,1003317,"SRA Taman Ibu Kota, Jalan Taman Ibu Kota",,3.211136,101.71643,1,,0,
250,1001899,"Masjid As Syakirin, Jalan Gombak",,3.218643,101.71288,1,,0,
251,1003345,"SMK Gombak Setia, Jalan Dewan",,3.21929,101.71502,1,,0,
252,1001648,"Kondominium Melati Impian, Jalan Madrasah",,3.218115,101.71705,1,,0,
253,1000772,"Flat Sri Langkawi (opp.), Jalan Madrasah",,3.219625,101.72043,1,,0,
254,1000786,"Flat Sri Tioman (opp.), Persiaran Pertahanan",,3.221333,101.72032,1,,0,
255,1003567,"Simpang Taman Cemerlang, Jalan Taman Melati 1/5",,3.226198,101.72285,1,,0,
256,1000795,"Flat Taman Melati, Jalan Melati 8/5",,3.225238,101.725586,1,,0,
257,1002888,"No. 126 Taman Melati, Persiaran Taman Melati",,3.221556,101.723015,1,,0,
258,1003687,"Stesen TNB, Jalan Taman Melati",,3.219724,101.72342,1,,0,
259,1000688,"Flat Taman Sentul Utama Blok 207, Jalan Dato Senu 26",,3.193976,101.69903,1,,0,
260,1001655,"Kondominium Sentul Utama (opp.), Jalan Dato Senu 26",,3.196146,101.698715,1,,0,
261,1003788,"Tadika Jasmani, Jalan Dato Senu 18",,3.195966,101.69575,1,,0,
262,1002372,"Pekan Dato Senu, Jalan Dato Senu 18",,3.193618,101.69577,1,,0,
263,1003736,"Surau (opp.), Jalan Dato Senu 11",,3.192367,101.69639,1,,0,
264,1001453,"Kampung Puah Bahagia, Jalan Bahagia 2",,3.191359,101.69691,1,,0,
265,1000845,"Gerai Makan (2), Jalan Bahagia 2",,3.189612,101.69705,1,,0,
266,1004220,"Western Cuisine, Jalan 1/48A",,3.186985,101.699615,1,,0,
267,1002089,"Nick Aris Tomyam, Jalan 1/48A",,3.184622,101.69916,1,,0,
268,1001704,"Kuarters Sekolah Flat Sri Perak, Jalan 1/48A",,3.182314,101.69803,1,,0,
269,1001902,"Menara Orked (opp.), Jalan 3/24A",,3.180451,101.69627,1,,0,
270,1001818,"Stesen LRT Sentul (opp.), Jalan 2/48A",,3.178292,101.695854,1,,0,
271,1001893,"Masjid Amru Ibn Al As (opp.), Jalan 1/48A",,3.178834,101.69792,1,,0,
272,1000685,"Flat Sri Perak Blok 29, Jalan 3/48A",,3.18055,101.69837,1,,0,
273,1004077,"Taman Tasik Titiwangsa, Jalan Kuantan",,3.180651,101.7058,1,,0,
274,1002559,"Sunny Cycle, Persiaran Titiwangsa",,3.180301,101.70125,1,,0,
275,1002558,"PL 8, Jalan Pahang",,3.180008,101.70115,1,,0,
276,1002557,"Shell, Jalan Pahang",,3.178551,101.70057,1,,0,
277,1003871,"Hospital Tawakal, Jalan Pahang",,3.178514,101.70024,1,,0,
278,1000689,"Masjid Amru Ibn Al As, Jalan 3/48A",,3.180471,101.69844,1,,0,
279,1002262,"Pasar Besar, Jalan 1/48A",,3.181909,101.697945,1,,0,
280,1000097,"Kondominium Anjung Villa, Jalan 1/48A",,3.184738,101.698906,1,,0,
281,1000693,"Flat Sentul Blok 79, Jalan 1/48A",,3.186979,101.699326,1,,0,
282,1000694,"Flat Sentul Blok 85, Jalan 1/48A",,3.188453,101.69759,1,,0,
283,1000695,"Flat Sentul Blok 87, Jalan 2/48A",,3.189024,101.69536,1,,0,
284,1001819,"Stesen LRT Sentul Timur (opp.), Jalan 2/48A",,3.187225,101.695335,1,,0,
285,1002157,"Pangsapuri Melur, Jalan 2/48A",,3.184969,101.695694,1,,0,
286,1000334,"Flat Sri Negeri Sembilan Blok 67, Jalan 2/48A",,3.183067,101.695,1,,0,
287,1000332,"Flat Sri Negeri Sembilan Blok 57, Jalan 2/48A",,3.180906,101.69494,1,,0,
288,1002015,"Menara Orked, Jalan 3/24A",,3.180445,101.695984,1,,0,
289,1001894,"Majlis Kebajikan & Masyarakat, Jalan 1/48A",,3.178751,101.69809,1,,0,
290,1001850,"Flat Bandar Baru Sentul Fasa 3, Jalan 1/48A",,3.177733,101.69636,1,,0,
291,1001817,"Stesen LRT Sentul, Jalan 2/48A",,3.1787,101.695526,1,,0,
292,1001820,"Stesen LRT Sentul Timur, Jalan 2/48A",,3.185619,101.6954,1,,0,
293,1003081,"Seharah Tomyam, Jalan 2/48A",,3.189066,101.69501,1,,0,
294,1000835,"Gerai Makan (1), Jalan Bahagia 2",,3.189234,101.69667,1,,0,
295,1001452,"Kampung Puah Bahagia (opp.), Jalan Bahagia 2",,3.191097,101.69642,1,,0,
296,1003735,"Surau, Jalan Dato Senu 11",,3.192347,101.696266,1,,0,
297,1002094,"Rumah No. 114, Jalan Dato Senu 26",,3.193304,101.69762,1,,0,
298,1002670,"Pusat Komuniti, Jalan Dato Senu 26",,3.193341,101.69869,1,,0,
299,1000558,"Klinik Kerajaan, Jalan Gombak",,3.221557,101.713165,1,,0,
300,1004217,"Warung Minang, Jalan Gombak",,3.224808,101.71412,1,,0,
301,1002973,"Rumah Pak Ali, Jalan Gombak",,3.227415,101.71377,1,,0,
302,1000559,"Dewan Datin Zaleha, Jalan Gombak",,3.228916,101.713455,1,,0,
303,1001051,"Jejantas Kampung Simpang Tiga, Jalan Batu Caves",,3.233747,101.70945,1,,0,
304,1000848,"Gerai Makan MPS, Jalan 4",,3.234291,101.704735,1,,0,
305,1002908,"No. 198 Taman Greenwood/Padang, Jalan 4",,3.232595,101.70403,1,,0,
306,1003459,"Jalan Berjaya 2 Taman Berjaya, Jalan Taman Gombak",,3.230415,101.703545,1,,0,
307,1002943,"Jalan Berjaya 4 Taman Berjaya, Jalan Taman Gombak",,3.228963,101.70286,1,,0,
308,1002858,"Taman Permainan Gombak Ria, Jalan Taman Gombak",,3.227269,101.702034,1,,0,
309,1001521,"Klinik Al Sakinah (opp.), Jalan Taman Gombak",,3.224301,101.70062,1,,0,
310,1002880,"No. 10 Taman Melewar, Jalan Marmar 1",,3.222344,101.70113,1,,0,
311,1002868,"Rumah Kedai/Loji (opp.), Jalan Marmar 1",,3.220721,101.70114,1,,0,
312,1001775,"Lot No.535B Taman Melewar, Jalan Marmar",,3.219016,101.70116,1,,0,
313,1002938,"No. 40 Taman Melewar, Jalan Marmar",,3.218269,101.70072,1,,0,
314,1004004,"Taman Melewar, Jalan Marmar",,3.218288,101.69939,1,,0,
315,1002937,"Surau Taman Melewar (opp.), Jalan Amzil",,3.219776,101.699196,1,,0,
316,1003589,"SRA Taman Melewar (opp.), Jalan Amzil",,3.220611,101.69919,1,,0,
317,1002929,"No. 31 Taman Melewar (opp.), Jalan Amzil",,3.221801,101.69914,1,,0,
318,1001520,"Klinik Al Sakinah, Jalan Taman Gombak",,3.22447,101.70055,1,,0,
319,1002857,"Rumah Kedai Gombak Ria (opp.), Jalan Taman Gombak",,3.225959,101.7012,1,,0,
320,1002942,"Taman Permainan Gombak Ria (opp.), Jalan Taman Gombak",,3.227489,101.7019,1,,0,
321,1003458,"Simpang Jalan 4 Taman Gombak, Jalan Taman Gombak",,3.23003,101.7031,1,,0,
322,1002218,"Padang, Jalan 4",,3.231968,101.70365,1,,0,
323,1000847,"Gerai Makan MPS (opp.), Jalan 4",,3.234572,101.70482,1,,0,
324,1003973,"Taman Greenwood (opp.), Jalan Batu Caves",,3.234367,101.706116,1,,0,
325,1001052,"Jejantas Kampung Simpang Tiga (opp.), Jalan Batu Caves",,3.234022,101.70948,1,,0,
326,1000557,"Dewan Datin Zaleha (opp.), Jalan Gombak",,3.231048,101.71242,1,,0,
327,1003975,"Taman Harmoni, Jalan Gombak",,3.227784,101.713974,1,,0,
328,1004218,"Warung Minang (opp.), Jalan Gombak",,3.22482,101.71436,1,,0,
329,1001548,"Klinik Kerajaan (opp.), Jalan Gombak",,3.222575,101.71386,1,,0,
330,1003449,"Simpang Gombak Setia, Jalan Gombak",,3.220089,101.71293,1,,0,
331,1000768,"Flat Sri Kedah (opp.), Jalan Madrash",,3.217323,101.71855,1,,0,
332,1003217,"Shell Taman Melati, Jalan Taman Melati 1/5",,3.224326,101.721115,1,,0,
333,1002951,"No. 54 Taman Melati, Persiaran Taman Melati",,3.222786,101.72316,1,,0,
334,1000408,"Stop 1 Rectory, Lingkaran UIA",,3.249507,101.73402,1,,0,
335,1000405,"Stop 2 Kulliyah Architecture, Lingkaran UIA",,3.25072,101.7313,1,,0,
336,1000409,"Stop 3 Kulliyah Engineering, Lingkaran UIA",,3.254296,101.73215,1,,0,
337,1000410,"Stop 4 Institute of Education, Lingkaran UIA",,3.254194,101.73347,1,,0,
338,1000411,"Stop 5 Kulliyah IRKHS, Lingkaran UIA",,3.253052,101.735954,1,,0,
339,1000412,"Stop 6 Kulliyah of Law, Lingkaran UIA",,3.252232,101.73856,1,,0,
340,1000972,"Hab Bas UIA Gombak, Lingkaran UIA",,3.252086,101.739784,1,,0,
341,1000413,"Stop 7 Kulliyah of Economics, Lingkaran UIA",,3.249634,101.7389,1,,0,
342,1000414,"Stop 8 Cafeteria, Lingkaran UIA",,3.249158,101.736664,1,,0,
343,1000415,"Stop 9 Rectory, Lingkaran UIA",,3.249392,101.73477,1,,0,
344,1001867,"Pas Gombak (opp.), Jalan Lintang",,3.24306,101.70608,1,,0,
345,1003499,"Simpang Jalan SG 4/9 (opp.), Jalan Makmur",,3.24062,101.706894,1,,0,
346,1002599,"Pos Malaysia Wisma KS, Jalan Gombak",,3.212413,101.70914,1,,0,
347,1003512,"Simpang Kampung Bandar Dalam (opp.), Jalan Gombak",,3.206079,101.70213,1,,0,
348,1001530,"Kedai Elektrik Lim, Jalan Gombak",,3.203429,101.70247,1,,0,
349,1001592,"Kolej Islam, Jalan Gombak",,3.201854,101.70302,1,,0,
350,1003623,"SRJK ( C ) Chong Hwa, Jalan Gomba",,3.198539,101.70408,1,,0,
351,1004182,"Used Car / Kampung Puah, Jalan Gombak",,3.196375,101.70476,1,,0,
352,1000589,"Diamond Square, Jalan Gombak",,3.19445,101.70554,1,,0,
353,1001281,"Kedai Gunting Rambut, Jalan Setapak",,3.187843,101.70379,1,,0,
354,1000296,"BHP Titiwangsa, Jalan Setapak",,3.183539,101.70226,1,,0,
355,1003561,"Simpang Tasik TitiWangsa, Jalan Pahang",,3.180051,101.701164,1,,0,
357,1002216,"Institut Penyelidikan Perubatan, Jalan Pahang",,3.169361,101.69855,1,,0,
359,1004169,"Pizza Hut, Jalan Tunku Abdul Rahman",,3.162059,101.69788,1,,0,
360,1002359,"Kedai Motor, Jalan Tunku Abdul Rahman",,3.161267,101.69753,1,,0,
361,1001629,"Kompleks Pertama, Jalan Tunku Abdul Rahman",,3.157916,101.696175,1,,0,
362,1000875,"Globe Silk Store, Jalan Tunku Abdul Rahman",,3.155154,101.69641,1,,0,
363,1000502,"Coliseum, Jalan Tunku Abdul Rahman",,3.152993,101.6966,1,,0,
364,1000047,"Agro Bank (opp.), Lebuh Pasar Besar",,3.147294,101.69446,1,,0,
365,1000962,"Hab Bas, Lebuh Pudu",,3.146556,101.6957,1,,0,
366,1000955,"HSBC, Medan Pasar",,3.147664,101.6958,1,,0,
367,1000382,"BSN, Lebuh Ampang",,3.149245,101.69737,1,,0,
368,1003683,"Standard Chartered Bank, Jalan Ampang",,3.151913,101.698,1,,0,
369,1000823,"Garden City Hotel, Jalan Munshi Abdullah",,3.153258,101.69849,1,,0,
370,1002560,"Plaza City One, Jalan Munshi Abdullah",,3.154652,101.69837,1,,0,
371,1003415,"Sogo, Jalan Dang Wangi",,3.156779,101.69536,1,,0,
372,1001984,"Medan Mara, Jalan Raja Laut",,3.157766,101.69447,1,,0,
373,1003299,"SRK Jalan Raja Laut, Jalan Raja Laut",,3.159664,101.6947,1,,0,
374,1003257,"Sime Darby / Cosmo Points, Jalan Raja Laut",,3.162295,101.69557,1,,0,
375,1002694,"Putri Park / City Hotel, Jalan Raja Laut",,3.164891,101.69623,1,,0,
376,1003428,"Simpang Bandar Baru Sentul, Jalan Pahang",,3.181697,101.701416,1,,0,
377,1000822,"Galeria, Jalan Pahang",,3.18571,101.70184,1,,0,
378,1001330,"Kedai Motor, Jalan Setapak",,3.188358,101.70393,1,,0,
379,1001362,"Lim Tyre, Jalan Gombak",,3.19443,101.70529,1,,0,
380,1003254,"Kampung Puah, Jalan Gombak",,3.197007,101.704285,1,,0,
381,1002471,"Petronas Batu 3, Jalan Gombak",,3.199179,101.7036,1,,0,
382,1001943,"Masjid Saad, Jalan Gombak",,3.201601,101.70281,1,,0,
383,1001324,"He Sin Used Car, Jalan Gombak",,3.203367,101.702225,1,,0,
384,1003511,"Simpang Kampung Bandar Dalam, Jalan Gombak",,3.205719,101.70168,1,,0,
385,1002260,"Pasar Besar Gombak, Jalan Gombak",,3.208744,101.7037,1,,0,
386,1001898,"Masjid As Sabirin, Jalan Gombak",,3.210776,101.706,1,,0,
387,1004244,"Wisma KS/Lorong Sungai Mulia, Jalan Gombak",,3.212525,101.708206,1,,0,
388,1000396,"Batu 5, Jalan Gombak",,3.213314,101.71146,1,,0,
389,1003636,"SRK Gombak 1 & 2, Jalan Gombak",,3.216895,101.71302,1,,0,
390,1001948,"Masjid Simpang Tiga, Jalan Gombak",,3.230144,101.71263,1,,0,
391,1001866,"Pas Gombak, Jalan Lintang",,3.243001,101.70581,1,,0,
392,1003868,"Taska Sri Bayu (opp.), Jalan Permai",,3.249379,101.6973,1,,0,
393,1002380,"Pekan Pinggiran Batu Caves, Jalan Pinggiran Batu Caves",,3.25036,101.69314,1,,0,
394,1000748,"Flat Samudera (opp.), Lebuhraya Karak",,3.232623,101.70119,1,,0,
395,1000053,"Akademi Latihan Memandu (opp.), Lebuhraya Karak",,3.227005,101.69772,1,,0,
396,1003993,"Taman Koperasi Polis Fasa 1, Lebuhraya Karak",,3.219629,101.694115,1,,0,
397,1004016,"Taman Pelangi Jaya, Lebuhraya Karak",,3.207885,101.69366,1,,0,
398,1001661,"Surau Tinggi Kampung Chubadak, Jalan Kampung Bandar Dalam",,3.201058,101.69466,1,,0,
399,1001659,"Kondominium Suajaya (opp.), Jalan Kampung Bandar Dalam",,3.199459,101.69244,1,,0,
400,1003625,"Padang SRJK ( C ) Sentul Pasar, Jalan Sentul Pasar",,3.196971,101.69089,1,,0,
401,1003114,"SRJK ( C ) Sentul Pasar (1), Jalan Kampung Bandar Dalam",,3.195954,101.691,1,,0,
402,1000638,"Esso, Jalan Sentul",,3.194599,101.691025,1,,0,
403,1000770,"Flat Sri Kelantan, Jalan Sentul",,3.192073,101.69102,1,,0,
404,1002171,"Pangsapuri Sentul Utara, Jalan Sentul",,3.190136,101.69132,1,,0,
405,1000255,"Bengkel Kereta, Jalan Sentul",,3.186655,101.69159,1,,0,
406,1003168,"CIMB Sentul Raya (opp.), Jalan Sentul",,3.185975,101.69253,1,,0,
407,1003169,"Tangki Air Sentul Raya (opp.), Jalan Sentul",,3.183684,101.69423,1,,0,
408,1003515,"Simpang Lebuhraya MahaMeru, Jalan Sentul",,3.181686,101.69322,1,,0,
409,1000573,"Dewan SRJK ( C ) Sentul, Jalan Sentul",,3.179896,101.69255,1,,0,
410,1001524,"Klinik Baharom (opp.), Jalan Sentul",,3.176865,101.69294,1,,0,
411,1000785,"Flat Sri Terengganu, Jalan Sentul",,3.175154,101.693146,1,,0,
412,1000403,"Chow Kit, Jalan Tunku Abdul Rahman",,3.165174,101.698456,1,,0,
413,1001853,"Maju Junction, Jalan Tunku Abdul Rahman",,3.159284,101.696724,1,,0,
414,1000521,"Dataran Merdeka (opp.), Jalan Raja",,3.149192,101.69445,1,,0,
415,1001418,"KFC, Jalan Raja Laut",,3.167214,101.69637,1,,0,
416,1002537,"Tan Chong Motor, Jalan Ipoh",,3.169322,101.695786,1,,0,
417,1002415,"Hospital Pusrawi, Jalan Ipoh",,3.170597,101.694084,1,,0,
418,1002413,"Perkim, Jalan Ipoh",,3.171103,101.69345,1,,0,
419,1001329,"Kedai Motor, Jalan Sentul",,3.17435,101.692535,1,,0,
420,1000784,"Flat Sri Terengganu (opp.), Jalan Sentul",,3.175664,101.6929,1,,0,
421,1001523,"Klinik Baharom, Jalan Sentul",,3.177927,101.69258,1,,0,
422,1003644,"SRK La Salle, Jalan Sentul",,3.180329,101.69239,1,,0,
423,1003167,"Sentul Raya (opp.), Jalan Sentul",,3.184347,101.69172,1,,0,
424,1003375,"SMK Convent, Jalan Sentul",,3.185947,101.69151,1,,0,
425,1002170,"Pangsapuri Sentul Utara (opp.), Jalan Sentul",,3.189346,101.69114,1,,0,
426,1000769,"SRK Sentul 1 & 2, Jalan Sentul",,3.19179,101.69079,1,,0,
427,1000637,"Esso (opp.), Jalan Sentul",,3.194084,101.69079,1,,0,
428,1003624,"SRJK ( C ) Sentul Pasar (opp.), Jalan Kampung Bandar Dalam",,3.196041,101.69081,1,,0,
429,1001660,"Kondominium Suajaya, Jalan Kampung Bandar Dalam",,3.200015,101.69278,1,,0,
430,1001408,"Kereta Terpakai, Jalan Kampung Bandar Dalam",,3.201174,101.69438,1,,0,
431,1003741,"Kampung Chubadak, Jalan Kampung Bandar Dalam",,3.201913,101.695274,1,,0,
432,1004015,"Taman Pelangi, Lebuhraya Karak",,3.20764,101.693436,1,,0,
433,1003997,"Taman Koperasi Polis Fasa 2, Lebuhraya Karak",,3.219586,101.6937,1,,0,
434,1000052,"Akademi Latihan Memandu, Lebuhraya Karak",,3.227049,101.69734,1,,0,
435,1000749,"Flat Samudera, Lebuhraya Karak",,3.232186,101.70057,1,,0,
436,1002217,"Hospital Kuala Lumpur, Jalan Pahang",,3.17198,101.69896,1,,0,
437,1000384,"BSN, Lebuh Pasar",,3.150338,101.69781,1,,0,
438,1001914,"Masjid Salahuddin Al Ayubbi, Jalan Melati 1/5",,3.223172,101.71979,1,,0,
439,1003986,"Hab Bas Taman Jasa Utama, Persiaran Jasa Utama",,3.268928,101.68187,1,,0,
440,1000241,"Bandar Baru Selayang Fasa 2, Jalan Sungai Tua",,3.262784,101.67859,1,,0,
442,1001496,"Kilang Papan Kampung Sungai Tua, Jalan Sungai Tua",,3.260194,101.673584,1,,0,
443,1003984,"Taman Jasa, Jalan Sungai Tua",,3.256518,101.67303,1,,0,
444,1001470,"SRA Sungai Tua Baharu, Jalan Sungai Tua",,3.252892,101.67493,1,,0,
445,1001917,"Masjid Kampung Nakhoda, Jalan Nakhoda Kanan",,3.249514,101.67804,1,,0,
446,1002592,"Masjid Al Amaniah, Jalan Sungai Tua",,3.23664,101.67388,1,,0,
447,1004263,"Wisma UMNO, Jalan Batu Caves",,3.236034,101.67959,1,,0,
448,1002019,"Mercedes Benz (opp.), Jalan Perusahaan",,3.231709,101.68266,1,,0,
449,1004103,"TNB Taman Batu Muda, Jalan Taman Batu Muda",,3.228056,101.685104,1,,0,
450,1000254,"No. 21 Taman Batu Muda (opp.), Jalan Taman Batu Muda",,3.228151,101.68662,1,,0,
451,1003009,"No. 39 Taman Batu Muda (opp.), Jalan Taman Batu Muda",,3.228209,101.68827,1,,0,
452,1004271,"(Opp.) Yayasan Pendidikan / Bangunan UMNO, Jalan 46/10",,3.226553,101.68943,1,,0,
453,1001591,"Kolej Islam Antarabangssa, Jalan 46/10",,3.223108,101.68943,1,,0,
454,1003996,"Taman Koperasi Polis Fasa 2, Jalan 46/10",,3.22053,101.689415,1,,0,
455,1001945,"Masjid Saidina Hamzah, Jalan 6/12C",,3.217681,101.68854,1,,0,
456,1002871,"Lot 11 Kampung Batu Muda (opp.), Persiaran 1/12",,3.215812,101.6871,1,,0,
457,1002874,"Lot 23 Kampung Batu Muda, Jalan 1/12B",,3.214798,101.68478,1,,0,
458,1003444,"Simpang Flat Tentera, Jalan Ampat Tin",,3.213172,101.68418,1,,0,
459,1002613,"PPR Taman Batu Muda Blok A, Jalan Ampat Tin",,3.208221,101.68063,1,,0,
460,1002615,"PPR Taman Batu Muda Blok B, Jalan Ampat Tin",,3.20698,101.679794,1,,0,
461,1003379,"SRK Batu 4, Jalan Ipoh",,3.202103,101.67664,1,,0,
462,1001966,"Maybank Batu 4, Jalan Ipoh",,3.200601,101.67763,1,,0,
463,1000401,"Simpang Batu Kentomen, Jalan Ipoh",,3.197571,101.679405,1,,0,
464,1002536,"Pasaraya Umarani, Jalan Ipoh",,3.194429,101.679825,1,,0,
465,1002535,"Kompleks Mutiara (opp.), Jalan Ipoh",,3.191294,101.68065,1,,0,
466,1003386,"SMK ( P ) Jalan Ipoh (opp.), Jalan Ipoh",,3.187982,101.681725,1,,0,
467,1002531,"Kondominium Sang Suria, Jalan Ipoh",,3.184232,101.68144,1,,0,
468,1002532,"Maybank Batu 3, Jalan Ipoh",,3.182723,101.68166,1,,0,
469,1001414,"KFC Batu 3, Jalan Ipoh",,3.180335,101.68342,1,,0,
470,1003170,"Sentul West, Jalan Ipoh",,3.178689,101.68585,1,,0,
471,1000949,"Hotel Tropicana, Jalan Ipoh",,3.177056,101.687675,1,,0,
472,1002528,"Bengkel Bomba, Jalan Ipoh",,3.174997,101.69004,1,,0,
473,1002053,"Stesen Monorel Chow Kit, Jalan Ipoh",,3.1673,101.69821,1,,0,
474,1002022,"Hotel Mesra Inn, Jalan Ipoh",,3.174228,101.690155,1,,0,
475,1001710,"Kuil Hindu, Jalan Ipoh",,3.176267,101.68786,1,,0,
476,1002041,"Mobil, Jalan Ipoh",,3.178304,101.685585,1,,0,
477,1002529,"HSBC / Perodua, Jalan Ipoh",,3.180085,101.68294,1,,0,
478,1002530,"Kompleks Batu, Jalan Ipoh",,3.183884,101.68101,1,,0,
479,1003385,"SMK ( P ) Jalan Ipoh, Jalan Ipoh",,3.187493,101.68159,1,,0,
480,1001626,"Kompleks Mutiara, Jalan Ipoh",,3.188924,101.680954,1,,0,
481,1002533,"Taman Bamboo, Jalan Ipoh",,3.195184,101.67956,1,,0,
482,1002534,"Kompleks Mikasa, Jalan Ipoh",,3.198479,101.678375,1,,0,
483,1001253,"Wisma Haji Pilus, Jalan Ipoh",,3.201957,101.67636,1,,0,
484,1002614,"PPR Taman Batu Muda Blok B (opp.), Jalan Ampat Tin",,3.206908,101.679535,1,,0,
485,1002612,"PPR Taman Batu Muda Blok A (opp.), Jalan Ampat Tin",,3.208419,101.68033,1,,0,
486,1003445,"Simpang Flat Tentera (1), Jalan Ampat Tin",,3.213226,101.68439,1,,0,
487,1002873,"Lot 23 Kampung Batu Muda (opp.), Jalan 1/12B",,3.214812,101.68463,1,,0,
488,1002872,"Lot 14 Kampung Batu Muda, Persiaran 1/12",,3.216116,101.685776,1,,0,
489,1001944,"Masjid Saidina Hamzah (1), Jalan 6/12C",,3.217866,101.68829,1,,0,
490,1003994,"Taman Koperasi Polis Fasa 2 (opp.), Jalan 46/10",,3.22058,101.68923,1,,0,
491,1001590,"Kolej Islam Antarabangsa, Jalan 46/10",,3.223227,101.68922,1,,0,
492,1004270,"Yayasan Pendidikan / Bangunan UMNO, Jalan 46/10",,3.226811,101.68912,1,,0,
493,1003042,"No. 39 Taman Batu Muda, Jalan Batu Muda",,3.228017,101.6882,1,,0,
494,1003008,"No. 21 Taman Batu Muda, Jalan Taman Batu Muda",,3.227942,101.68669,1,,0,
495,1004104,"TNB (1), Jalan Taman Batu Muda",,3.227853,101.68525,1,,0,
496,1001095,"Jalan Bunga Tanjung, Jalan Nakhoda Kiri",,3.252702,101.67819,1,,0,
497,1001727,"Kuzam Catering, Jalan Nakhoda Kiri",,3.254124,101.67993,1,,0,
498,1002967,"Rumah No. 8970, Jalan Nakhoda Kiri",,3.253465,101.68246,1,,0,
499,1002966,"Rumah No. 8804, Jalan Nakhoda Kanan",,3.252528,101.68346,1,,0,
500,1001781,"Lorong Nakhoda 25, Jalan Nakhoda Kanan",,3.249419,101.679276,1,,0,
501,1001426,"Kampung Sungai Tua, Jalan Sungai Tua",,3.261698,101.67595,1,,0,
502,1003983,"Taman Jasa (opp.), Jalan Sungai Tua",,3.256249,101.67279,1,,0,
503,1001991,"Medan Selera Kampung Bendahara, Jalan Sungai Tua",,3.260675,101.67381,1,,0,
504,1001425,"Kampung Bendahara, Jalan Sungai Tua",,3.261953,101.67575,1,,0,
505,1000240,"Bandar Baru Selayang Fasa 2 (1), Jalan Sungai Tua",,3.263018,101.67851,1,,0,
506,1003985,"Taman Jasa Utama, Jalan Sungai Tua",,3.269051,101.68156,1,,0,
507,1002059,"Desa Sri Hartamas Mon't Kiara, Jalan Kiara",,3.163695,101.64776,1,,0,
508,1003527,"Simpang Mon't Kiara (2), Lebuhraya Sprint",,3.165563,101.64833,1,,0,
509,1003108,"Garden International School, Jalan Kiara 3",,3.167099,101.64858,1,,0,
510,1000466,"Kondominium Casa Kiara, Jalan Kiara",,3.168941,101.64903,1,,0,
511,1001119,Jalan Kiara 60/70,,3.171038,101.64943,1,,0,
512,1002052,Mon Asari Sdn Bhd,,3.173059,101.65015,1,,0,
513,1001020,"Jabatan Lebuhraya NKVE, Jalan Segambut Dalam",,3.175328,101.65116,1,,0,
514,1001883,"Masjid Al Ubudiah, Jalan Segambut Dalam",,3.177643,101.65168,1,,0,
515,1002996,Rumah Panjang,,3.178825,101.65207,1,,0,
516,1003266,"Sing Fat Hardware (2), Jalan Segambut Dalam",,3.182621,101.65421,1,,0,
517,1001193,"Joo & Coo, Jalan Segambut Dalam",,3.183192,101.6551,1,,0,
518,1003731,"Surau Ikhwaniah (2), Jalan Segambut Dalam",,3.184013,101.6557,1,,0,
519,1001861,"Mandy Villa, Jalan Segambut",,3.185363,101.65688,1,,0,
520,1002102,"No. SG 12 Kampung Segambut Bahagia, Jalan Segambut",,3.185756,101.658264,1,,0,
521,1001715,"Kuil Hindu (opp.), Jalan Segambut",,3.186655,101.66079,1,,0,
522,1001687,"Stesen KTM Segambut (opp.), Jalan Segambut",,3.187082,101.66282,1,,0,
523,1003650,"SRK Segambut, Jalan Segambut",,3.186831,101.66755,1,,0,
524,1000293,"BHP (opp.), Jalan Segambut",,3.185721,101.669266,1,,0,
525,1003834,"Tan Chong Motor Assembly, Jalan Segambut",,3.184044,101.67263,1,,0,
526,1000826,"GBH Ceramics (opp. 1), Jalan Segambut",,3.183381,101.674416,1,,0,
527,1004132,"Toyota, Jalan Segambut",,3.183287,101.67626,1,,0,
528,1000828,"GBH Ceramics (opp. 2), Jalan Segambut",,3.181776,101.67756,1,,0,
529,1001811,"Stesen LRT Masjid Jamek/Masjid Jamek KL, Jalan Tun Perak",,3.149251,101.69657,1,,0,
530,1000520,"Dataran Merdeka, Lengkok Raja",,3.149922,101.69379,1,,0,
531,1000533,"DBKL, Jalan Raja Laut",,3.153629,101.69466,1,,0,
532,1002017,"Menara TKSS, Jalan Segambut",,3.182119,101.67702,1,,0,
533,1000827,"GBH Ceramics, Jalan Segambut",,3.183066,101.67473,1,,0,
534,1004283,"YYCB, Jalan Segambut",,3.183667,101.67288,1,,0,
535,1000294,"BHP, Jalan Segambut",,3.184134,101.67166,1,,0,
536,1001358,"Kedai Spare Part, Jalan Segambut",,3.185427,101.66925,1,,0,
537,1003191,"SRK Segambut (opp.), Jalan Segambut",,3.186796,101.66726,1,,0,
538,1001688,"Stesen KTM Segambut, Jalan Segambut",,3.186976,101.66254,1,,0,
539,1001716,"Kuil Hindu, Jalan Segambut",,3.186432,101.66093,1,,0,
540,1001582,"Simpang Jalan Kelapa Puyuh, Jalan Segambut",,3.18558,101.65827,1,,0,
541,1001862,"Mandy Villa (opp.), Jalan Segambut",,3.18518,101.65698,1,,0,
542,1003732,"Surau Ikhwaniah (1), Jalan Segambut Dalam",,3.18399,101.6559,1,,0,
543,1001192,"Joo & Coo (1), Jalan Segambut Dalam",,3.18272,101.65474,1,,0,
544,1003265,"Sing Fat Hardware (1), Jalan Segambut Dalam",,3.182095,101.653786,1,,0,
545,1001884,"Masjid Al Ubudiah (1), Jalan Segambut Dalam",,3.178667,101.65222,1,,0,
546,1001021,"Jabatan Lebuhraya NKVE (1), Jalan Segambut Dalam",,3.175709,101.6514,1,,0,
547,1001475,"Kondominium Kiara, Jalan Kiara",,3.173951,101.65114,1,,0,
548,1001120,Jalan Kiara 60/70 (1),,3.171277,101.64971,1,,0,
549,1002061,"Kondominium Ceriaan Kiara, Jalan Kiara 3",,3.16909,101.64929,1,,0,
550,1003109,"Garden International School (opp.), Jalan Kiara 3",,3.167368,101.64884,1,,0,
551,1003528,"Simpang Mon't Kiara (1), Lebuhraya Sprint",,3.16532,101.64831,1,,0,
552,1003250,"Damansara Damai, Terminal Bas, Jalan PJU 10/1",,3.195835,101.59206,1,,0,
553,1002590,"Pondok Polis/Apartment Idaman, Jalan 10/1",,3.190843,101.592316,1,,0,
554,1000127,"Apartment Impian, Jalan PJU 10/1",,3.192343,101.58802,1,,0,
555,1000135,"Apartment Permai, Jalan 10/1",,3.19425,101.58839,1,,0,
556,1002781,"Restoran Mahbub, Jalan 10/1",,3.197168,101.59416,1,,0,
557,1002666,"Pusat Kereta Berjaya, Jalan Sungai Buloh",,3.200002,101.62527,1,,0,
558,1001405,"Stesen KTM Kepong Sentral (1), Jalan Kuala Selangor",,3.20795,101.628975,1,,0,
559,1001982,"Hab Bas Kepong, Jalan Kepong",,3.213114,101.63259,1,,0,
560,1002027,"Jusco Metro Prima (opp.), Jalan Kepong",,3.214356,101.639305,1,,0,
561,1000452,"Carrefour Kepong, Jalan Kepong",,3.214102,101.64308,1,,0,
562,1000483,"CIMB, Jalan Kepong",,3.21261,101.64619,1,,0,
563,1001677,"Hotel Smart, Jalan Kepong",,3.211148,101.649055,1,,0,
564,1001680,"Depot Bas Selangor, Jalan Kepong",,3.208954,101.654625,1,,0,
565,1002353,"Pejabat DBKL, Jalan Kepong",,3.20803,101.66057,1,,0,
566,1001675,"Pusat Penjaja Jinjang, Jalan Kepong",,3.207495,101.66353,1,,0,
567,1001679,"Wisma TNB, Jalan Kepong",,3.206173,101.666794,1,,0,
568,1001633,"Kompleks Sungai Mas (opp.), Jalan Ipoh",,3.202921,101.67297,1,,0,
569,1001634,"Kompleks Sungai Mas, Jalan Ipoh",,3.20269,101.67366,1,,0,
570,1000380,"Hotel Crystal Crown, Jalan Kepong",,3.203987,101.66879,1,,0,
571,1001678,"Wisma TNB (opp.), Jalan Kepong",,3.206665,101.665726,1,,0,
572,1001674,"Pusat Penjaja Jinjang (opp.), Jalan Kepong",,3.207324,101.6636,1,,0,
573,1002352,"Pejabat DBKL (opp.), Jalan Kepong",,3.207843,101.660095,1,,0,
574,1004121,"Petronas (opp.), Jalan Kepong",,3.208641,101.65501,1,,0,
575,1002665,"Commercial Park, Jalan Kepong",,3.208441,101.65272,1,,0,
576,1001676,"Depoh Bas Selangor (opp.), Jalan Kepong",,3.209579,101.650925,1,,0,
577,1000616,"EON Bank, Jalan Kepong",,3.211571,101.64755,1,,0,
578,1003215,"Shell, Jalan Kepong",,3.212407,101.64609,1,,0,
579,1000451,"Carrefour Kepong (opp.), Jalan Kepong",,3.213865,101.64255,1,,0,
580,1002028,"Jusco Metro Prima, Jalan Kepong",,3.214125,101.63966,1,,0,
581,1000436,"Hab Bas Kepong (opp.), Jalan Kepong",,3.213062,101.633064,1,,0,
582,1001406,"Stesen KTM Kepong Sentral (opp.), Jalan Kuala Selangor",,3.207718,101.62937,1,,0,
583,1003437,"Simpang Bukit Maluri, Jalan Sungai Buloh",,3.20281,101.62739,1,,0,
584,1002782,"Restoran Mahbub (opp.), Jalan 10/1",,3.196576,101.593994,1,,0,
585,1001756,"Lin Ho M Bhd, Jalan Samudera Barat 1",,3.233089,101.68943,1,,0,
586,1002664,"Pusat Kemahiran D' MARA, Jalan 46/10",,3.215445,101.68943,1,,0,
587,1003373,"SMK Batu Muda (opp.), Jalan 46/10",,3.211251,101.68942,1,,0,
588,1001163,"Kampung Sentul Pasar (opp.), Jalan Sentul Pasar",,3.204099,101.68936,1,,0,
589,1001162,"Kampung Sentul Pasar, Jalan Sentul Pasar",,3.20369,101.68913,1,,0,
590,1001164,"SMK Batu Muda (1), Jalan 46/10",,3.211083,101.689186,1,,0,
591,1000174,"Asrama Putri Desa View, Jalan 46/10",,3.214012,101.68915,1,,0,
592,1003995,"Pangsapuri Sri Batu, Jalan 46/10",,3.2194,101.6892,1,,0,
593,1000480,"CIMB (opp.), Lebuh Utama Sri Gombak",,3.237747,101.69952,1,,0,
594,1003362,"SMK Teknik (3), Jalan Sungai Pusu",,3.246681,101.72831,1,,0,
595,1001697,"Kuarters Institut Pendidikan, Jalan Sungai Pusu",,3.244904,101.72499,1,,0,
596,1003117,"Sekolah Integrasi Gombak (2), Jalan Sungai Pusu",,3.244204,101.72203,1,,0,
597,1003164,"Selepas Traffic Light, Jalan Gombak",,3.243814,101.72016,1,,0,
598,1002869,"Rumah Khailani, Jalan Gombak",,3.244645,101.7167,1,,0,
599,1001256,"Kedai Basikal LE RUN (1), Jalan Gombak",,3.244798,101.71501,1,,0,
600,1001456,"Kampung Sungai Chincin (opp), Jalan Gombak",,3.242993,101.71391,1,,0,
601,1000265,"Besi Potong, Jalan Gombak",,3.240896,101.71403,1,,0,
602,1003639,"SRK Gombak Utara (Stop 2), Jalan Gombak",,3.239419,101.714264,1,,0,
603,1003654,"SRK Sungai Pusu (Stop 1), Jalan Gombak",,3.237352,101.714424,1,,0,
604,1001949,"Masjid Simpang Tiga (opp.), Jalan Gombak",,3.234067,101.7141,1,,0,
605,1001638,"Komuniti Lestari Sungai Chincin, Jalan Gombak",,3.23601,101.71432,1,,0,
606,1003638,"SRK Gombak Utara (opp.), Jalan Gombak",,3.2388,101.71405,1,,0,
607,1001255,"Kedai Basikal LE RUN, Jalan Gombak",,3.24498,101.71483,1,,0,
608,1003801,"Tadika Kemas, Jalan Gombak",,3.24509,101.71632,1,,0,
609,1001457,"Kampung Sungai Chincin, Jalan Gombak",,3.243804,101.71961,1,,0,
610,1003360,"SMK Teknik (1), Jalan Sungai Pusu",,3.2443,101.72185,1,,0,
611,1003118,"Sekolah Integrasi Gombak (1), Jalan Sungai Pusu",,3.24512,101.72283,1,,0,
612,1001696,"Kuarters Institut Pendidikan (1), Jalan Sungai Pusu",,3.245118,101.72451,1,,0,
613,1003361,"SMK Teknik (2), Jalan Sungai Pusu",,3.246866,101.728294,1,,0,
614,1003905,"Terminal Sri Segambut, Jalan Udang Kepai",,3.194682,101.65662,1,,0,
615,1003037,"Taman Sri Segambut, Jalan Udang Kepai",,3.19492,101.65594,1,,0,
619,1000298,"BHP (opp.), Jalan Udang Rawa",,3.196992,101.65508,1,,0,
620,1001187,"Taman Sri Segambut, Jalan Udang Rawa",,3.198824,101.65503,1,,0,
621,1000035,"7 Eleven Taman Pusat Kepong, Jalan 4/40",,3.200706,101.65514,1,,0,
622,1003255,"Silverstone Taman Pusat Kepong, Jalan 4/40",,3.201486,101.65464,1,,0,
623,1004029,"Taman Pusat Kepong, Jalan 1/40",,3.203168,101.655235,1,,0,
627,1004034,"Kuil Hindu, Jalan 31/31B",,3.19802,101.66028,1,,0,
628,1002999,"Rumah Panjang (2), Jalan 31/31B",,3.198502,101.66131,1,,0,
629,1002997,"Rumah Panjang Blok 14, Jalan 22/31B",,3.199313,101.66229,1,,0,
630,1002998,"Rumah Panjang, Lengkungan Jambu Gajus",,3.20052,101.66254,1,,0,
631,1002334,"Padang Permainan (opp.), Lengkungan Jambu Gajus",,3.19985,101.6633,1,,0,
632,1001085,"Padang Bola, Jalan A",,3.200105,101.6653,1,,0,
633,1001086,"Pekan, Jalan A",,3.199734,101.666466,1,,0,
634,1000004,"4JJ, Jalan 17/42",,3.19908,101.6666,1,,0,
635,1001736,"Lampu Isyarat, Jalan 17/42",,3.197961,101.66621,1,,0,
636,1001843,"Magnum, Jalan 17/42",,3.196855,101.66579,1,,0,
637,1002375,"Taman Kok Doh, Jalan 6/42A",,3.194813,101.6654,1,,0,
638,1004046,"Madrasah Manbaul Uloom, Jalan 6/42A",,3.193393,101.665726,1,,0,
639,1003208,"Shell, Jalan 6/42A",,3.192435,101.666,1,,0,
640,1001451,"Taman Sejahtera, Jalan 9/42A",,3.192834,101.66663,1,,0,
641,1002377,"Kampung Pasir Segambut (opp.), Jalan 1/42A",,3.190386,101.668846,1,,0,
642,1001128,"Masjid Al Firdaus (opp.), Jalan 1/42A",,3.188029,101.669174,1,,0,
643,1001126,"SMK Segambut (opp.), Jalan Kuching",,3.187144,101.66836,1,,0,
644,1000221,"Bangkok Bank, Jalan Tun H S Lee",,3.146146,101.69657,1,,0,
645,1000048,"Agro Bank, Lebuh Pasar Besar",,3.14699,101.69478,1,,0,
646,1003649,"SRK Segambut, Jalan 1/42A",,3.187529,101.668465,1,,0,
647,1001875,"Kampung Pasir Segambut, Jalan 1/42A",,3.190482,101.668625,1,,0,
648,1001407,"Kereta Terpakai, Jalan 4/42A",,3.192357,101.6671,1,,0,
649,1003207,"Shell (opp.), Jalan 4/42A",,3.192305,101.66599,1,,0,
650,1002376,"Simpang Taman Sejahtera, Jalan 6/42A",,3.193372,101.665596,1,,0,
651,1001450,"Pekan Kok Doh, Jalan 6/42A",,3.194767,101.66525,1,,0,
652,1002961,"Magnum (opp.), Jalan 17/42",,3.196779,101.665565,1,,0,
653,1000003,Jalan D,,3.198461,101.66597,1,,0,
654,1002307,Jalan E,,3.198808,101.66457,1,,0,
655,1001084,"Simpang Jalan G, Jalan E",,3.198452,101.66378,1,,0,
656,1002333,"Padang Permainan, Lengkungan Jambu Gajus",,3.200388,101.66242,1,,0,
657,1002945,"Rumah No. 4A, Jalan 22/31B",,3.199484,101.662445,1,,0,
658,1003000,"Rumah Panjang (1), Jalan 31/31B",,3.198466,101.66145,1,,0,
659,1001709,"Kuil Hindu (opp.), Jalan 31/31B",,3.197929,101.660385,1,,0,
660,1001161,"Masjid Al Qutubi Segambut, Pintasan Segambut",,3.194745,101.65987,1,,0,
661,1004037,"Taman QUPECS Segambut, Pintasan Segambut",,3.193265,101.65763,1,,0,
662,1001891,"Masjid Al Qutupi Segambut (opp.), Pintasan Segambut",,3.194353,101.65864,1,,0,
663,1004032,"Taman Pusat Kepong 1 (1), Jalan Udang Batu",,3.197869,101.65982,1,,0,
664,1004028,"Taman Pusat Kepong 2 (1), Jalan Udang Batu",,3.199653,101.65895,1,,0,
665,1004027,"Taman Pusat Kepong 1 (opp.), Jalan 10/40",,3.199599,101.6578,1,,0,
666,1004026,"Taman Pusat Kepong 2 (opp.), Jalan 10/40",,3.199611,101.65683,1,,0,
667,1004025,"Taman Pusat Kepong 3 (opp.), Jalan 10/40",,3.199633,101.65595,1,,0,
668,1004024,"Taman Sri Segambut (1), Jalan Udang Rawa",,3.199103,101.65515,1,,0,
669,1000299,"BHP, Jalan Udang Rawa",,3.197012,101.65519,1,,0,
677,1003131,"Sekolah Memandu Skem (2), Jalan Gombak",,3.288598,101.73093,1,,0,
678,1003120,"Sekolah Islam Antarabangsa (2), Jalan Gombak",,3.282904,101.72988,1,,0,
679,1003089,"Jalan Gombak, Batu 10, Kampung Salak",,3.280394,101.729256,1,,0,
680,1001111,Jalan Gombak,,3.278757,101.72962,1,,0,
681,1003668,"SSanG Yong (2), Jalan Gombak",,3.267722,101.72748,1,,0,
682,1002417,"Perkuburan Islam, Jalan Gombak",,3.263649,101.72669,1,,0,
683,1003547,"Simpang Sungai Pusu Batu 8 (1), Jalan Gombak",,3.254624,101.72578,1,,0,
684,1002845,Rumah Atas Bukit Jalan Gombak,,3.25122,101.72411,1,,0,
685,1003637,"SRK Gombak Utara (Stop 1) , Jalan Gombak",,3.247963,101.72293,1,,0,
686,1003655,"SRK Sungai Pusu (Stop 2), Jalan Gombak",,3.244856,101.72171,1,,0,
687,1001428,"Kampung Chubadak (1), Jalan Kampung Bandar Dalam",,3.205106,101.70027,1,,0,
688,1001268,"Kedai Bunga, Jalan Kampung Bandar Dalam",,3.205585,101.69891,1,,0,
689,1003742,"Surau Kampung Chubadak, Jalan Kampung Bandar Dalam",,3.204839,101.697624,1,,0,
690,1001829,"Stesen LRT TitiWangsa (opp.), Jalan Tun Razak",,3.172775,101.69526,1,,0,
691,1001114,Jalan Kampung Bandar Dalam,,3.20478,101.69729,1,,0,
692,1001427,"Kampung Chubadak (2), Jalan Kampung Bandar Dalam",,3.205827,101.69884,1,,0,
693,1003337,"Selepas Lampu Isyarat, Jalan Gombak",,3.245153,101.721634,1,,0,
694,1003546,"Simpang Sungai Pusu Batu 8, Jalan Gombak",,3.247054,101.72246,1,,0,
695,1002416,"Perkuburan Islam Batu 8, Jalan Gombak",,3.249018,101.723,1,,0,
696,1003667,"SSanG Yong (1), Jalan Gombak",,3.253184,101.72483,1,,0,
697,1001462,"Kampung Sungai Salak Batu 10, Jalan Gombak",,3.260418,101.72669,1,,0,
698,1003119,"Sekolah Islam Antarabangsa (1), Jalan Gombak",,3.269159,101.72759,1,,0,
699,1003130,"Sekolah Memandu Skem (1), Jalan Gombak",,3.288451,101.73061,1,,0,
700,1000925,"Hospital Orang Asli, Jalan Gombak",,3.292573,101.73126,1,,0,
701,1002859,"Rumah Kedai (2), Jalan Dato' Senu 18",,3.193962,101.695786,1,,0,
702,1002791,"Restoran Nali's (2), Jalan Dato Senu 3",,3.193984,101.69396,1,,0,
703,1003035,"Rumah Teres, Jalan Taman Dato Senu",,3.195338,101.69199,1,,0,
704,1002860,"Rumah Kedai (1), Jalan Dato Senu 18",,3.195348,101.69143,1,,0,
705,1002792,"Restoran Nali's (1), Jalan Dato Senu 3",,3.194668,101.694115,1,,0,
706,1002867,"Rumah Kedai, Jalan Taman Dato' Senu",,3.193381,101.69602,1,,0,
707,1001259,"Hab Bas Taman Melawati, Jalan Taman Melawati",,3.227723,101.74547,1,,0,
708,1000355,"Bulatan Bukit Mas, Jalan Taman Melawati",,3.226009,101.74419,1,,0,
709,1002285,"Pasar Mini, Jalan Taman Melawati",,3.222244,101.7412,1,,0,
710,1003099,"Sekolah Antarabangsa (2), Jalan Melawati 3",,3.219369,101.74257,1,,0,
711,1003102,"Simpang Jalan C9 / SR (A), Jalan Melawati 3",,3.21682,101.74514,1,,0,
712,1000498,"Club Century Paradise (1), Jalan Melawati 3",,3.215877,101.745964,1,,0,
713,1003471,"Simpang Jalan B1 (opp.), Jalan Melawati 2",,3.214695,101.74831,1,,0,
714,1003410,"SMK Taman Melawati, Jalan Taman Melawati",,3.214855,101.7504,1,,0,
715,1000663,"Fasa 5A, Jalan Taman Melawati",,3.221586,101.74828,1,,0,
716,1000664,"Fasa 5A (1), Jalan Taman Melawati",,3.218295,101.74869,1,,0,
717,1003073,"Sebelum SRJK ( T ), Jalan Taman Melawati",,3.212176,101.75219,1,,0,
718,1003885,"TM, Jalan Taman Melawati",,3.210152,101.75311,1,,0,
719,1004287,"Zoo Negara, MRR2",,3.206866,101.75659,1,,0,
720,1003139,"Sekolah Sri Inai, MRR2",,3.202808,101.75979,1,,0,
721,1001294,"Kedai Kayu, MRR2",,3.200981,101.76112,1,,0,
722,1001343,"Kedai Perabot, MRR2",,3.196135,101.76342,1,,0,
723,1000067,"Ally Azran (opp.), Jalan AU3/1",,3.195175,101.76117,1,,0,
724,1000530,"Dawama (opp.), Jalan AU3/1",,3.192899,101.76118,1,,0,
725,1004144,"Transformer (opp.), Jalan AU3/1",,3.189981,101.76115,1,,0,
726,1001090,"Loji (1), Jalan AU3/1",,3.18793,101.76058,1,,0,
727,1000996,"Imkeda (opp.), Jalan AU3/1",,3.184379,101.75922,1,,0,
728,1000801,"Flat Taman Sepakat, Jalan AU3/1",,3.181317,101.75715,1,,0,
729,1000870,"Glaxo Smith & Klien (1), Jalan Enggang",,3.177998,101.75473,1,,0,
730,1003067,"Sapura, Jalan Enggang",,3.176462,101.75361,1,,0,
731,1003063,"S E H, Jalan Enggang",,3.174214,101.75321,1,,0,
732,1003918,"Texas, Jalan Enggang",,3.171015,101.75079,1,,0,
733,1000720,"Flat Keramat, Jalan Enggang",,3.169773,101.746666,1,,0,
734,1000260,"Bengkel Motosikal, Jalan Enggang",,3.168837,101.74432,1,,0,
735,1001777,"Simpang Lorong Enggang 15, Jalan Enggang",,3.167873,101.74188,1,,0,
736,1003520,"Simpang Lorong Enggang 13, Jalan Enggang",,3.167684,101.74031,1,,0,
737,1000258,"Petronas, Jalan Enggang",,3.16807,101.73628,1,,0,
738,1003762,"Syarikat Jaya Diri, Jalan Datuk Keramat",,3.165741,101.733955,1,,0,
739,1001800,"Stesen LRT Dato Keramat, Jalan Datuk Keramat",,3.165154,101.731606,1,,0,
740,1001878,"Masjid Al Ikram, Jalan Keramat",,3.166492,101.73007,1,,0,
741,1003132,"Sekolah Memandu Zimas (2), Jalan Keramat",,3.168266,101.727615,1,,0,
742,1001865,"Markas Latihan Tentera Darat, Jalan Padang Tembak",,3.172807,101.72599,1,,0,
743,1001147,"MINDEF (1), Jalan Padang Tembak",,3.174075,101.72412,1,,0,
744,1004191,"Universiti Teknologi Malaysia, Jalan Semarak",,3.174496,101.719864,1,,0,
745,1000985,"IBS, Jalan Semarak",,3.172453,101.71838,1,,0,
746,1002628,"Proton Edar (opp.), Jalan Semarak",,3.170059,101.71652,1,,0,
747,1003641,"SRK Jalan Gurney, Jalan Semarak",,3.168646,101.71544,1,,0,
748,1002823,"Oriental Capital (opp.), Jalan Ampang",,3.1535,101.7009,1,,0,
749,1000049,"AIA, Jalan Ampang",,3.152589,101.69977,1,,0,
750,1001809,"Stesen LRT Masjid Jamek, Jalan Melaka",,3.149726,101.69688,1,,0,
752,1001999,"Menara Celcom, Jalan Semarak",,3.168446,101.71497,1,,0,
753,1002629,"Proton Edar (1), Jalan Semarak",,3.170942,101.716866,1,,0,
754,1001869,"Markas TLDM, Jalan Semarak",,3.172651,101.71821,1,,0,
755,1002645,"PULAPOL, Jalan Semarak",,3.17463,101.71964,1,,0,
756,1001197,"Pertahanan Awam, Jalan Padang Tembak",,3.175622,101.7219,1,,0,
757,1002033,"MINDEF, Jalan Padang Tembak",,3.174968,101.723175,1,,0,
758,1002338,"Padang Permainan, Jalan Padang Tembak",,3.173276,101.72576,1,,0,
759,1003133,"Sekolah Memandu Zimas, Jalan Keramat",,3.168513,101.72781,1,,0,
760,1002279,"Pasar Keramat, Jalan Keramat Dalam",,3.166577,101.730545,1,,0,
761,1001778,"Simpang Lorong Keramat Dalam 4, Jalan Keramat Dalam",,3.167233,101.732216,1,,0,
762,1000577,"Dewan Serbaguna (opp.), Jalan Keramat Dalam",,3.167442,101.73405,1,,0,
763,1000259,"Bengkel MARA, Jalan Enggang",,3.168266,101.736824,1,,0,
764,1002887,"Rumah No.124, Jalan Enggang",,3.167979,101.74034,1,,0,
765,1000719,"Flat Keramat (opp.), Jalan Enggang",,3.169031,101.7442,1,,0,
766,1000698,"Flat C, Jalan Enggang",,3.170052,101.746925,1,,0,
767,1003919,"Texas (opp.), Jalan Enggang",,3.171253,101.75079,1,,0,
768,1003062,"S.E.H (opp.), Jalan Enggang",,3.174,101.7531,1,,0,
769,1003066,"Medan Selera Desa Keramat, Jalan Enggang",,3.176534,101.75336,1,,0,
770,1000869,"Glaxo Smith & Klien (opp.), Jalan Enggang",,3.178107,101.754684,1,,0,
771,1003821,"Tadika Sepakat, Jalan AU3/1",,3.180121,101.75607,1,,0,
772,1000800,Flat Taman Sepakat (opp.) Jalan AU3/1,,3.181483,101.757095,1,,0,
773,1000995,"IMKEDA, Jalan AU3/1",,3.185078,101.75928,1,,0,
774,1001761,"Loji, Jalan AU3/1",,3.1879,101.76046,1,,0,
775,1004143,"Transformer, Jalan AU3/1",,3.190881,101.7609,1,,0,
776,1000529,"Dawama, Jalan AU3/1",,3.192967,101.760956,1,,0,
777,1000066,"Ally Azran, Jalan AU3/1",,3.194819,101.76107,1,,0,
778,1001882,"Masjid Al Ridzuan, MRR2",,3.196207,101.76279,1,,0,
779,1003640,"SRK HUlu Kelang, MRR2",,3.200051,101.76123,1,,0,
780,1003184,"Servis Proton, MRR2",,3.202785,101.75929,1,,0,
781,1004288,"Zoo Negara (opp.), MRR2",,3.205814,101.75688,1,,0,
782,1000430,"Caltex, Jalan Taman Melawati",,3.210988,101.75271,1,,0,
783,1003472,"Simpang Jalan B1, Jalan Melawati 2",,3.214297,101.7507,1,,0,
784,1003473,"Simpang Jalan B2, Jalan Melawati 2",,3.214465,101.748245,1,,0,
785,1000497,"Club Century Paradise, Jalan Melawati 3",,3.215703,101.74577,1,,0,
786,1003098,"Sekolah Antarabangsa (1), Jalan Melawati 3",,3.220337,101.74153,1,,0,
787,1002734,"Restoran Choice, Jalan Taman Melawati",,3.222079,101.74073,1,,0,
788,1003069,"Sebelum Bulatan Bukit Mas, Jalan Taman Melawati",,3.225553,101.74357,1,,0,
789,1003663,"SRK Taman Melawati, Jalan Melawati 4",,3.224185,101.74731,1,,0,
790,1003827,"Tadika Wati, Jalan Taman Melawati",,3.225109,101.748726,1,,0,
791,1000852,"Gerai Nasi Lemak, Jalan Taman Melawati",,3.2284,101.748055,1,,0,
793,1000447,"Car Wash, Jalan Bukit Belacan",,3.14624,101.76847,1,,0,
794,1003210,"Shell, Jalan Bukit Belacan",,3.147545,101.76579,1,,0,
795,1003147,"SRJK (T), Jalan Bukit Belacan",,3.148826,101.763176,1,,0,
796,1001782,"Stesen LRT Ampang, Jalan Ampang",,3.151269,101.760506,1,,0,
797,1003932,"Taman Dato Ahmad Razali (opp.), Jalan Ampang",,3.154464,101.7544,1,,0,
798,1000084,"Hab Bas Ampang Point, Jalan Ampang",,3.156859,101.751144,1,,0,
799,1002464,"Petronas, Jalan Ampang",,3.159386,101.744286,1,,0,
800,1000540,"Simpang Jalan Berembang, Jalan Ampang",,3.16022,101.74166,1,,0,
801,1000625,"Kem Transit, Jalan Ampang",,3.160867,101.738266,1,,0,
802,1000888,"Great Eastern Mall, Jalan Ampang",,3.160866,101.73709,1,,0,
803,1002412,"Perkeso, Jalan Ampang",,3.160451,101.7335,1,,0,
804,1000918,"Hock Choon, Jalan Ampang",,3.160524,101.728905,1,,0,
805,1002627,"Proton Edar, Jalan Ampang",,3.16016,101.725365,1,,0,
806,1001798,"Stesen LRT Dang Wangi (opp.), Jalan Ampang",,3.156105,101.70296,1,,0,
807,1001110,"Alliance Bank, Jalan Gereja",,3.150349,101.69798,1,,0,
808,1001181,"Rumah Kedai, Jalan Tun H S Lee",,3.148725,101.69792,1,,0,
809,1000273,"Bangunan Lin Ho (opp.), Jalan Hang Lekiu",,3.1477,101.69743,1,,0,
810,1004240,"Wisma Hamzah, Lebuh Ampang",,3.148136,101.69647,1,,0,
811,1001637,"Kompleks Wilayah, Jalan Dang Wangi",,3.156044,101.70065,1,,0,
812,1001797,"Stesen LRT Dang Wangi, Jalan Ampang",,3.156094,101.70236,1,,0,
813,1002711,"Hotel Renaissance, Jalan Ampang",,3.156891,101.70544,1,,0,
814,1001963,"Selangor Dredging, Jalan Ampang",,3.158771,101.708626,1,,0,
815,1000542,"KLCC Avenue K, Jalan Ampang",,3.159306,101.712296,1,,0,
816,1000939,"Hotel Corus, Jalan Ampang",,3.159878,101.71496,1,,0,
817,1000082,"Ampang Park, Jalan Ampang",,3.160424,101.71837,1,,0,
818,1002402,"Perabot Rozel, Jalan Ampang",,3.160422,101.72535,1,,0,
819,1000947,"Hotel Sucasa, Jalan Ampang",,3.160663,101.72856,1,,0,
820,1002119,"Outdoor Centre, Jalan Ampang",,3.160858,101.731255,1,,0,
821,1002834,"RRI, Jalan Ampang",,3.160744,101.73346,1,,0,
822,1003209,"Hospital Gleneagles, Jalan Ampang",,3.161121,101.73783,1,,0,
823,1000284,"BHP, Jalan Ampang",,3.160566,101.74104,1,,0,
824,1002825,"Risda, Jalan Ampang",,3.159326,101.74574,1,,0,
825,1000083,"Ampang Point, Jalan Ampang",,3.157335,101.75083,1,,0,
826,1000546,"Desa 288, Jalan Ampang",,3.155304,101.75384,1,,0,
827,1003933,"Taman Dato Ahmad Razali, Jalan Ampang",,3.153008,101.75787,1,,0,
828,1001783,"Stesen LRT Ampang (opp.), Jalan Ampang",,3.15119,101.76084,1,,0,
829,1000602,"Dewan Ahmad Razali, Jalan Ampang",,3.14905,101.76336,1,,0,
830,1000088,"Ampang Water Front, Jalan Ampang",,3.147421,101.766685,1,,0,
831,1003505,"Simpang Jalan Wawasan 2, Jalan Wawasan",,3.145907,101.76963,1,,0,
832,1000802,"Flat Ukay Perdana, Jalan Ukay Perdana",,3.210439,101.77938,1,,0,
833,1002723,"Restoran Ali Maju, Jalan Sungai Sering",,3.208119,101.78134,1,,0,
834,1000029,"7 Eleven (opp.), Jalan Sungai Sering",,3.20404,101.77917,1,,0,
835,1000145,"Pangsapuri Seri Melor, Jalan Ukay Perdana 4",,3.2034,101.776276,1,,0,
836,1001988,"Medan Selera, Jalan Ukay Perdana 4",,3.206478,101.77347,1,,0,
837,1002172,"Pangsapuri Seri Baiduri, Jalan Ukay Perdana 2",,3.205261,101.772095,1,,0,
838,1001987,"Pangsapuri Seri Baiduri (1), Jalan Ukay Perdana 2",,3.206681,101.77263,1,,0,
839,1000144,"Pangsapuri Seri Melor (1), Jalan Ukay Perdana 4",,3.203811,101.77567,1,,0,
840,1000679,"Flat Al Ridzuan (opp.), Jalan Sungai Sering",,3.198169,101.77217,1,,0,
841,1001760,"Stor TNB (opp.), Jalan AU3/56",,3.188449,101.760254,1,,0,
842,1002005,"AU3 Jentayu, Menara Jentayu, Jalan 3/56",,3.189493,101.75756,1,,0,
843,1001394,"Kelumpuk Tempua, Jalan 1/56",,3.187427,101.756134,1,,0,
844,1001392,"Kelumpuk Embun Emas, Jalan 15/56",,3.183259,101.753815,1,,0,
845,1001390,"Kelumpuk Bunga Raya, Jalan 15/56",,3.183198,101.75158,1,,0,
846,1001402,"Kelumpuk Kenanga, Jalan 19/56",,3.183279,101.74901,1,,0,
847,1000470,"Kelumpuk Cempaka 54 (opp.), Jalan 27/56",,3.182118,101.74879,1,,0,
848,1001393,"Kelumpuk Nuri, Jalan 27/56",,3.180112,101.74818,1,,0,
849,1003789,"Tadika (2), Jalan 14/55A",,3.178452,101.74667,1,,0,
850,1003171,"Apartment Sri Ayu, Jalan 14/55A",,3.178968,101.74546,1,,0,
851,1001180,"Pangsapuri ATM (opp.), Jalan Taman Setiawangsa",,3.177498,101.74486,1,,0,
852,1002071,"MSN (opp.), Jalan AU2/8",,3.176649,101.74959,1,,0,
855,1001799,"Servis Proton, Jalan Datuk Keramat",,3.165002,101.726425,1,,0,
856,1001098,"Lorong Keramat 20, Jalan Datuk Keramat",,3.164822,101.72509,1,,0,
857,1001796,"Stesen LRT Damai, Jalan Datuk Keramat",,3.164708,101.72419,1,,0,
858,1000628,"Esso (opp.), Jalan Datuk Keramat",,3.164977,101.72307,1,,0,
859,1000755,"Flat Seri Perlis (opp.), Jalan Datuk Keramat",,3.165969,101.72111,1,,0,
860,1003778,"Tadika Capital, Jalan Gurney",,3.168534,101.71852,1,,0,
861,1000669,"FELDA, Jalan Perumahan Gurney",,3.169794,101.71771,1,,0,
862,1000668,"FELDA (opp.), Jalan Perumahan Gurney",,3.17007,101.717636,1,,0,
863,1003797,"Tadika, Jalan Perumahan Gurney",,3.167922,101.71883,1,,0,
864,1000754,"Flat Seri Perlis, Jalan Datuk Keramat",,3.166217,101.72104,1,,0,
865,1002258,"Pasar Baru, Jalan Keramat",,3.166343,101.72336,1,,0,
866,1001780,"Lorong Kiri 7, Jalan Keramat",,3.167891,101.72486,1,,0,
867,1001779,"Lorong Kiri 11, Jalan Keramat",,3.16866,101.726875,1,,0,
868,1001157,"Rumah 22, Jalan AU2",,3.174329,101.750916,1,,0,
869,1001089,Jalan AU3,,3.176941,101.74923,1,,0,
870,1002070,"MSN, Jalan 37/56",,3.177761,101.748604,1,,0,
871,1002125,"Pangsapuri ATM, Jalan Taman Setiawangsa",,3.177268,101.74508,1,,0,
872,1003172,"Apartment Sri Ayu (opp.), Jalan 14/55A",,3.179147,101.74561,1,,0,
873,1003790,"Tadika (1), Jalan 14/55A",,3.178673,101.7469,1,,0,
874,1003722,"Surau As Syakirin, Jalan 30/56",,3.178958,101.74837,1,,0,
875,1001384,"Kelumpuk Bambu, Jalan 27/56",,3.179973,101.74801,1,,0,
876,1000469,"Kelumpuk Cempaka 54, Jalan 27/56",,3.182331,101.74873,1,,0,
877,1001401,"Kelumpuk Kenanga (opp.), Jalan 19/56",,3.183662,101.74896,1,,0,
878,1001388,"Kelumpuk Serunding Malam (opp.), Jalan 19/56",,3.184779,101.74989,1,,0,
879,1001386,"Kelumpuk Jerijit C,  Jalan 15/56",,3.183637,101.75161,1,,0,
880,1001385,"Kelumpuk Jerijit A, Jalan 15/56",,3.183012,101.75251,1,,0,
881,1001389,"Kelumpuk Teratai, Jalan 15/56",,3.183373,101.753525,1,,0,
882,1003010,"Rumah Teres 2 Tingkat, Jalan 10/56",,3.183539,101.75471,1,,0,
883,1001387,"Kelumpuk Kuang, Jalan 1/56",,3.187191,101.755844,1,,0,
884,1002006,"Menara Jentayu (opp.), Jalan 3/56",,3.189669,101.75768,1,,0,
885,1001762,"Stor TNB, Jalan AU3/56",,3.188586,101.76033,1,,0,
886,1000678,"Flat Al Ridzuan, Jalan Sungai Sering",,3.195526,101.76478,1,,0,
887,1000028,"7 Eleven, Jalan Sungai Sering",,3.20453,101.77905,1,,0,
888,1002724,"Restoran Ali Maju, Jalan Ukay Perdana",,3.208183,101.781204,1,,0,
889,1000803,"Flat Ukay Perdana (opp.), Jalan Ukay Perdana",,3.210225,101.77922,1,,0,
890,1000868,"Giant Taman Permata, MRR2",,3.208413,101.74956,1,,0,
891,1002463,"Petronas (Opp.), Jalan 2/27A",,3.210023,101.743904,1,,0,
892,1003775,"Tadika Bakti, Jalan 2/27A",,3.207781,101.74228,1,,0,
893,1001835,"Stesen LRT Wangsa Maju (opp.), Jalan 1/27A",,3.205259,101.73203,1,,0,
894,1000750,"Flat Seksyen 1, Jalan 1/27A",,3.206962,101.72975,1,,0,
895,1000423,"Caltex, Jalan Genting Kelang",,3.20746,101.72677,1,,0,
896,1002684,"Puspakom, Jalan Genting Kelang",,3.205776,101.72549,1,,0,
897,1000983,"Hyundai, Jalan Genting Kelang",,3.202611,101.72113,1,,0,
898,1002470,"Petronas, Jalan Genting Kelang",,3.200715,101.718414,1,,0,
899,1000286,"BHP, Jalan Genting Kelang",,3.198956,101.716385,1,,0,
900,1002551,"Pizza Hut, Jalan Genting Kelang",,3.196643,101.71378,1,,0,
901,1001057,"Jejantas/KFC, Jalan Genting Kelang",,3.195428,101.71255,1,,0,
902,1001323,"Kedai Motor, Jalan Genting Kelang",,3.193511,101.71052,1,,0,
903,1003186,"Setapak Used Car (opp.), Jalan Genting Kelang",,3.191791,101.70851,1,,0,
904,1000507,"Courts, Jalan Genting Kelang",,3.190805,101.70704,1,,0,
905,1003187,"Setapak Used Car, Jalan Genting Kelang",,3.19191,101.70842,1,,0,
906,1001417,"KFC, Jalan Genting Kelang",,3.195182,101.71224,1,,0,
907,1001335,"Kedai Perabot A to Z (opp.), Jalan Genting Kelang",,3.197204,101.714,1,,0,
908,1000285,"BHP (opp.), Jalan Genting Kelang",,3.198939,101.71614,1,,0,
909,1003849,"Tasik Danau Kota, Jalan Genting Kelang",,3.201085,101.71864,1,,0,
910,1001199,"JPJ Wangsa Maju (opp.), Jalan Genting Kelang",,3.204343,101.72287,1,,0,
911,1001400,"Kem Wardieburn, Jalan Genting Kelang",,3.20607,101.72535,1,,0,
912,1003848,"TAR Villa, Jalan 1/27A",,3.207374,101.729454,1,,0,
913,1001834,"Stesen LRT Wangsa Maju, Jalan 1/27A",,3.205398,101.73204,1,,0,
914,1000551,"Desa Setapak, Jalan 1/27A",,3.204421,101.73339,1,,0,
915,1000552,"Desa Setapak (1), Jalan 1/27A",,3.205972,101.73927,1,,0,
916,1002462,"Petronas, Jalan 2/27A",,3.209988,101.7436,1,,0,
917,1001368,"Kedai Tenaga Taman Melawati, MRR2",,3.208909,101.748695,1,,0,
918,1001803,"Stesen LRT Jelatek, Jalan Jelatek",,3.166896,101.73501,1,,0,
919,1002603,"PPR Jelatek, Jalan Jelatek",,3.16409,101.73506,1,,0,
920,1001643,"Kondo Ampang Hilir, Jalan Ampang Hilir",,3.159712,101.7299,1,,0,
921,1002700,"Raintree Club (2), Jalan Desa Pandan",,3.156687,101.737076,1,,0,
922,1001663,"Kondo Upper East, Jalan 1/76E",,3.153069,101.73718,1,,0,
923,1004097,"TNB, Jalan 1/76E",,3.151701,101.73772,1,,0,
924,1003635,"SRK Desa Pandan, Jalan 4/76",,3.150415,101.73881,1,,0,
925,1002395,"Pencawang TNB, Jalan 2/76D",,3.148606,101.74041,1,,0,
926,1001519,"Klinik Al Hilal, Jalan 2/76",,3.146917,101.74003,1,,0,
927,1003423,"Speedy Video, Jalan Desa Pandan",,3.14624,101.73893,1,,0,
928,1004151,"Tukang Emas, Jalan Kampung Pandan",,3.146447,101.73795,1,,0,
929,1002773,"Restoran Kampung Pandan (1), Jalan Kanan 1",,3.146743,101.736435,1,,0,
930,1000711,"Flat Desa Pandan B2, Jalan Kampung Pandan",,3.148017,101.73578,1,,0,
931,1000016,"7 Eleven, Jalan Desa Pandan",,3.150513,101.73602,1,,0,
932,1002699,"Raintree Club (1), Jalan Desa Pandan",,3.153031,101.73644,1,,0,
933,1004200,"Villa Aman Kondo, Jalan Richie",,3.155744,101.737045,1,,0,
934,1000081,"Ampang Hilir, Jalan Richie",,3.15801,101.73906,1,,0,
935,1002432,"Persiaran Richie, Jalan Ampang",,3.158882,101.74052,1,,0,
936,1002616,"PPR Jelatek (opp.), Jalan Jelatek",,3.163495,101.73482,1,,0,
937,1000970,"Hab Bas Taman Dagang, Jalan Dagang 1",,3.146369,101.75934,1,,0,
938,1003907,"Gerai Tomyam Terminal Taman Dagang, Jalan Dagang 1",,3.147979,101.75924,1,,0,
939,1004129,"Gerai Makan (opp.), Jalan Dagang 1",,3.148603,101.75761,1,,0,
940,1000859,"Giant (opp.), Jalan Dagang Besar",,3.147273,101.75694,1,,0,
941,1001646,"Kondominium City Garden, Jalan Nirwana",,3.145726,101.75468,1,,0,
942,1003219,"Shell, Jalan Nirwana",,3.145944,101.75178,1,,0,
943,1001535,"Klinik Ibu & Anak, Jalan Pandan Kemajuan",,3.145889,101.749954,1,,0,
944,1001876,"Masjid Nurul Hidayah Kampung Pandan, Jalan Pandan Kemajuan",,3.145872,101.74787,1,,0,
945,1002035,"Mini Restoran, Jalan Pandan Kemajuan",,3.145937,101.74539,1,,0,
946,1000565,"Dewan Ahmad Jantan (opp.), Jalan Kanan 1",,3.145189,101.74309,1,,0,
947,1002281,"Pasar Minggu (Opp.), Jalan Kanan 1",,3.145536,101.74149,1,,0,
948,1001880,Masjid Ar Rahimah Desa Pandan (opp.) Jalan Kanan 1,,3.144952,101.73899,1,,0,
949,1001868,"Markas PAS Kampung Pandan, Jalan Kanan 1",,3.143518,101.73775,1,,0,
950,1002774,"Restoran Kampung Pandan (2), Jalan Kanan 1",,3.142872,101.7366,1,,0,
951,1001273,"Kedai Dobi, Jalan Thavers",,3.143218,101.735695,1,,0,
952,1001557,"Klinik Kampung Pandan, Jalan Kampung Pandan",,3.144551,101.733116,1,,0,
953,1000018,"7 Eleven, Jalan Kampung Pandan",,3.144393,101.73077,1,,0,
954,1002472,"Petronas, Jalan Kampung Pandan",,3.142575,101.728,1,,0,
955,1003107,"SMK Aminuddin Baki, Jalan Kampung Pandan",,3.141258,101.72742,1,,0,
956,1001721,"Kuil Sikh, Jalan Kampung Pandan",,3.138609,101.726425,1,,0,
957,1000191,"Baitulmal (opp), Jalan Perkasa",,3.135246,101.72929,1,,0,
958,1000465,"Casaria, Jalan Jejaka",,3.132531,101.73472,1,,0,
959,1001700,"Kuarters Kerajaan, Jalan Cochrane",,3.132802,101.72531,1,,0,
960,1003343,"SMK Cochrane (opp.), Jalan Cochrane",,3.133659,101.721954,1,,0,
961,1004241,"Wisma Indah, Jalan Tun Razak",,3.133722,101.71838,1,,0,
962,1002607,"PPR Laksamana/SM Convent, Jalan Peel",,3.132331,101.71963,1,,0,
963,1000454,"Carrefour, Jalan Peel",,3.131751,101.72136,1,,0,
964,1001889,"Masjid Alam Shah, Jalan Tun Razak",,3.135256,101.71861,1,,0,
965,1000128,"Apartment Ixora, Jalan Tun Razak",,3.137429,101.71901,1,,0,
966,1000359,"Bulatan Kampung Pandan (1), Jalan Kampung Pandan",,3.138715,101.72189,1,,0,
967,1001720,"Kelab Sukan Kampung Pandan, Jalan Kampung Pandan",,3.13875,101.72621,1,,0,
968,1003106,"SMK Aminuddin Baki (opp.), Jalan Kampung Pandan",,3.140871,101.726944,1,,0,
969,1000712,"Flat Desa Pandan (1), Jalan Kampung Pandan",,3.144652,101.73323,1,,0,
970,1002087,"Naza, Jalan Kampung Pandan",,3.144203,101.73705,1,,0,
971,1001881,"Masjid Ar Rahimah Desa Pandan, Jalan Kanan 1",,3.145024,101.738716,1,,0,
972,1002280,"Pasar Minggu, Jalan Kanan 1",,3.145986,101.73991,1,,0,
973,1000564,"Dewan Ahmad Jantan, Jalan Kanan 1",,3.145452,101.74303,1,,0,
974,1001291,"Kedai Jahit Mahkota, Jalan Pandan Kemajuan",,3.146134,101.74603,1,,0,
975,1001877,"Masjid Nurul Hidayah (opp)., Jalan Pandan Kemajuan",,3.146121,101.74804,1,,0,
976,1001534,"Klinik Ibu & Anak (opp.), Jalan Pandan Kemajuan",,3.146121,101.74949,1,,0,
977,1002205,"Pasaraya Mariam, Jalan Nirwana",,3.146014,101.75182,1,,0,
978,1000541,"Kondominium City Garden (opp.), Jalan Nirwana",,3.146078,101.754555,1,,0,
979,1003838,"Tangki Air (opp.), Jalan Nirwana",,3.145838,101.75548,1,,0,
980,1001527,"Klinik Dr Fauziah, Jalan Dagang Besar",,3.146364,101.75657,1,,0,
981,1000858,"Giant, Jalan Dagang Besat",,3.147497,101.75679,1,,0,
982,1004130,"Gerai Makan, Jalan Dagang 1",,3.148857,101.757645,1,,0,
983,1003908,"Terminal Taman Dagang, Jalan Dagang 1",,3.148073,101.75932,1,,0,
984,1002604,"PPR Ampang Hilir, Jalan Putra Sulaiman",,3.150875,101.745964,1,,0,
985,1000026,"7 Eleven, Jalan Putra Sulaiman",,3.150367,101.749016,1,,0,
986,1001146,Jalan Nirwana 38,,3.147497,101.75066,1,,0,
987,1001271,"Kedai Burger AZ (1), Jalan B",,3.142603,101.74594,1,,0,
988,1003716,"Surau Al Falak (1), Jalan Cempaka 1",,3.139545,101.7482,1,,0,
989,1000187,"Axis Atrium, Jalan Cempaka",,3.136821,101.74678,1,,0,
990,1000792,"Flat Taman Bakti (1), Jalan Cempaka",,3.136059,101.74561,1,,0,
991,1003914,"TESCO, MRR2",,3.142222,101.7432,1,,0,
992,1000791,"Flat Taman Bakti, Jalan Cempaka",,3.136199,101.74571,1,,0,
993,1000179,"Axis Atrium, Jalan Cempaka",,3.137061,101.747055,1,,0,
994,1003717,"Surau Al Falak (2), Jalan Cempaka 1",,3.139042,101.748215,1,,0,
995,1001270,"Kedai Burger AZ, Jalan B",,3.142575,101.74567,1,,0,
996,1002936,"Rumah No.4, Jalan Nirwana 38",,3.147227,101.750534,1,,0,
997,1000818,"Galaxy, Jalan Putra Sulaiman",,3.149016,101.7549,1,,0,
998,1004054,"Taman Shamelin, Terminal Bas, Jalan 10/91",,3.123788,101.73908,1,,0,
999,1004280,"YPM, Jalan 1/91",,3.126744,101.73735,1,,0,
1000,1001477,"Kilang Cheetah, Jalan 6/91",,3.12465,101.73826,1,,0,
1001,1004137,"Toyota Servis, Jalan 5/91",,3.122683,101.73817,1,,0,
1002,1002409,"Perdana Court, Jalan Perdana Utama",,3.120888,101.7406,1,,0,
1003,1004216,"Warta Perdana, Jalan 2/1",,3.119769,101.741714,1,,0,
1004,1002411,"Perdana Villa (Opp.), Jalan 2/1",,3.118064,101.74073,1,,0,
1005,1002243,"Pandan Perdana Deluxe (Opp.), Jalan 2/1",,3.116444,101.7397,1,,0,
1006,1002246,"Pandan Vista (Opp.), Jalan 2/1",,3.115097,101.73908,1,,0,
1007,1002240,"Pandan Height, Jalan 2/1",,3.113225,101.73851,1,,0,
1008,1002244,"Pandan Safari, Jalan 3/1",,3.114306,101.74087,1,,0,
1009,1003124,"SRK Pandan Perdana (2), Jalan 3/1",,3.115952,101.74162,1,,0,
1010,1000008,"7 Eleven (Opp.), Jalan Perdana 3/1",,3.120209,101.74353,1,,0,
1011,1003774,"Tadika Bakti Nusa (1), Jalan Indah",,3.124484,101.74234,1,,0,
1012,1004234,"Wisma Dirgahayu, Jalan Indah",,3.127339,101.74263,1,,0,
1013,1003899,"Terminal Maju Jaya, Jalan Indah",,3.128753,101.74282,1,,0,
1014,1000426,"Caltex (1), Jalan Indah",,3.130373,101.74279,1,,0,
1015,1001813,"Stesen LRT Pandan Jaya (opp.), Jalan Pandan Indah",,3.129403,101.73927,1,,0,
1016,1000385,"BSN, Jalan Pandan Indah",,3.127601,101.73588,1,,0,
1017,1002527,"PGRM, Jalan Pandan Indah",,3.122869,101.72943,1,,0,
1018,1002526,"PGRM (opp.), Jalan 1/91",,3.122964,101.729164,1,,0,
1019,1000381,"BSN (opp.), Jalan 1/91",,3.128011,101.73632,1,,0,
1020,1001812,"Stesen LRT Pandan Jaya, Jalan Pandan Indah",,3.129496,101.73893,1,,0,
1021,1001334,"Kedai Newton Leader, Jalan Indah",,3.130448,101.74298,1,,0,
1022,1002794,"Restoran Nanyang, Jalan Indah",,3.128908,101.74287,1,,0,
1023,1003776,"Tadika Bakti Nusa (2), Jalan Indah",,3.124551,101.74243,1,,0,
1024,1000009,"7 Eleven, Jalan Perdana 3/1",,3.12029,101.743675,1,,0,
1025,1003125,"SRK Pandan Perdana (1), Jalan 3/1",,3.116134,101.74192,1,,0,
1026,1003537,"Simpang Safari Park, Jalan 3/1",,3.114247,101.74106,1,,0,
1027,1002241,"Pandan Height (Opp.), Jalan 2/1",,3.112722,101.73863,1,,0,
1028,1002245,"Pandan Vista, Jalan 2/1",,3.115166,101.73883,1,,0,
1029,1002242,"Pandan Perdana Deluxe, Jalan 2/1",,3.116447,101.73954,1,,0,
1030,1002410,"Perdana Villa, Jalan 2/1",,3.118005,101.74051,1,,0,
1031,1002247,"Pandan Warta, Jalan 2/1",,3.119783,101.74147,1,,0,
1032,1002239,"Pandan Court, Jalan Perdana Utama",,3.120675,101.740685,1,,0,
1033,1000624,"Esso, Jalan 5/91",,3.122766,101.73808,1,,0,
1034,1001793,Stesen LRT Cempaka,,3.138316,101.75308,1,,0,
1035,1000704,"Flat Dahlia, Jalan Pandan Indah",,3.134203,101.75151,1,,0,
1036,1000964,"Hab Bas Depoh Pandan Indah, Jalan Pandan Indah",,3.134305,101.753716,1,,0,
1037,1000728,"Flat Merpati/Masjid, Jalan Pandan Indah",,3.133948,101.75634,1,,0,
1038,1003691,"Stor Shell Gas, Jalan Pandan Indah",,3.132901,101.76072,1,,0,
1039,1001651,"Kondo Pandan Mewah, Jalan Pandan Utama",,3.131076,101.76247,1,,0,
1040,1000992,"Ilham Tomyam, Jalan Pandan Utama",,3.130401,101.76021,1,,0,
1041,1003749,"Madarasatul Sofwa (opp.), Jalan Pandan Utama",,3.129884,101.758965,1,,0,
1042,1000610,"Emerald Montessori, Jalan Pandan Utama",,3.129349,101.7572,1,,0,
1043,1002238,"Pandan Capital, Jalan Pandan Utama",,3.129042,101.75388,1,,0,
1044,1000927,"Hospital Pandan Indah, Jalan Pandan Utama",,3.12892,101.75175,1,,0,
1045,1000189,"Balai Polis Pandan Indah, Jalan Pandan Ilmu",,3.127956,101.75081,1,,0,
1046,1003307,"SRK Pandan Indah, Jalan Pandan Ilmu",,3.125444,101.7511,1,,0,
1047,1003351,"SMK Pandan Indah, Jalan Pandan Ilmu",,3.123051,101.75127,1,,0,
1048,1003924,"The Riveira (opp.), Jalan Bunga Raya",,3.119612,101.75259,1,,0,
1049,1002044,"(Opp.) Mobil, Jalan Bunga Raya",,3.119776,101.75652,1,,0,
1050,1001177,"Pasar, Jalan Bunga Raya",,3.119743,101.75902,1,,0,
1051,1001755,"Lim Tayar (1), Jalan Bunga Mawar 4",,3.121407,101.76008,1,,0,
1052,1002489,"Petronas (opp.), Jalan Teratai 1/2",,3.119806,101.76315,1,,0,
1053,1003148,"SMK Taman Seraya, Jalan Bunga Melati 8",,3.115611,101.763336,1,,0,
1054,1000362,"Bulatan Seraya, Jalan Bunga Melati 8",,3.114909,101.76133,1,,0,
1055,1003166,"Seni Kenanga, Jalan Kuari",,3.114305,101.75608,1,,0,
1056,1000634,"Esso, Jalan Kuari",,3.112392,101.7547,1,,0,
1057,1001908,"Masjid Cheras Baru, Jalan Kuari",,3.110906,101.753746,1,,0,
1058,1001486,"Kilang, Jalan Bukit Permai Utama",,3.111035,101.75615,1,,0,
1059,1000715,"Flat Taman Bukit Permai, Jalan Bukit Permai Utama",,3.111985,101.75806,1,,0,
1060,1001319,"Kedai Makan Quang Xi, Jalan Bunga Mawar 8",,3.115037,101.76148,1,,0,
1061,1003211,"Shell, Jalan Bunga Mawar 8",,3.115293,101.76221,1,,0,
1062,1002488,"Petronas, Jalan Teratai 1/2",,3.119073,101.7631,1,,0,
1063,1002688,"Puteri Park Plaza (opp.), Jalan Teratai 1/2",,3.120899,101.763,1,,0,
1064,1001754,"Lim Tayar, Jalan Bunga Mawar 4",,3.12127,101.76003,1,,0,
1065,1001280,"Kedai Gunting, Jalan Bunga Raya",,3.119681,101.75887,1,,0,
1066,1002045,"Mobil, Jalan Bunga Raya",,3.119668,101.75716,1,,0,
1067,1003925,"The Riveira, Jalan Bunga Raya",,3.119484,101.75312,1,,0,
1068,1003990,"Taman Kencana, Jalan Pandan Ilmu",,3.120154,101.75121,1,,0,
1069,1003350,"SMK Pandan Indah (opp.), Jalan Pandan Ilmu",,3.122573,101.75112,1,,0,
1070,1003306,"SRK Pandan Indah (opp.), Jalan Pandan Ilmu",,3.12521,101.750946,1,,0,
1071,1003689,"Steven Corner, Jalan Pandan Utama",,3.12903,101.7517,1,,0,
1072,1001962,"Maxisegar, Jalan Pandan Utama",,3.129156,101.75352,1,,0,
1073,1002821,"RHB, Jalan Pandan Utama",,3.129183,101.75491,1,,0,
1074,1000110,"Apartment Blok BD, Jalan Pandan Utama",,3.129434,101.75722,1,,0,
1075,1003811,"Tadika Noraziah, Jalan Pandan Utama",,3.13016,101.75903,1,,0,
1076,1000636,"Esso Pandan Indah, Jalan Pandan Indah",,3.132217,101.76225,1,,0,
1077,1002320,"Padang, Jalan Pandan Indah",,3.132807,101.76002,1,,0,
1078,1000354,"Apartment Merpati 2, Jalan Pandan Indah 6/1",,3.134079,101.757484,1,,0,
1079,1000134,"Apartment Nuri Court 1, Jalan Pandan Indah 6/1",,3.135515,101.75665,1,,0,
1082,1000353,"Apartment Kenari Court 7, Jalan Pandan Indah 6/1",,3.136592,101.7542,1,,0,
1083,1000352,"Apartment Kenari Court 3, Jalan Pandan Indah 6/1",,3.135873,101.75621,1,,0,
1084,1002683,Pusat Snooker Jalan Pandan Indah 6/1,,3.133911,101.75762,1,,0,
1085,1001652,"Kondominium Pandan Mewah, Jalan Pandan Utama",,3.130005,101.7632,1,,0,
1086,1000922,"Hospital Ampang, Jalan Pandan Mewah 1",,3.127832,101.763145,1,,0,
1087,1003221,"Shell Pandan Mewah (opp.), Jalan Pandan Mewah 1",,3.125555,101.763054,1,,0,
1088,1003012,"Rumah Teres 3 Tingkat, Jalan Teratai 1/2",,3.115154,101.76419,1,,0,
1089,1002321,"Padang, Jalan Teratai 1/1",,3.114798,101.765564,1,,0,
1090,1004285,"Zetisma Used Car, Jalan Teratai 1/1",,3.116946,101.767624,1,,0,
1091,1001996,"Melur Steak House, Jalan Teratai 1/1",,3.119508,101.7698,1,,0,
1092,1001312,"Kedai Makan, Jalan Melur 1/1",,3.120689,101.77031,1,,0,
1093,1002323,"Padang, Jalan Taman Putera",,3.121772,101.77123,1,,0,
1094,1004109,"TNB Station, Jalan Taman Putera",,3.121991,101.77251,1,,0,
1095,1001252,"Kedai Akuarium, Jalan Taman Putera",,3.123193,101.77502,1,,0,
1096,1003576,"Simpang Taman Sri Bayu (2), Jalan Taman Putera",,3.125208,101.77653,1,,0,
1097,1000567,"Dewan Kemas, Jalan Tasik Tambahan",,3.128326,101.77757,1,,0,
1098,1003252,"Sik Cheong, Jalan Tasik Tambahan 1",,3.128924,101.77633,1,,0,
1099,1003804,"Tadika Kemas (2), Jalan Tasik Tambahan 1",,3.128824,101.77363,1,,0,
1100,1003723,"Surau Baitul Islah (2), Jalan 1/1",,3.129974,101.77179,1,,0,
1101,1001316,"Kedai Makan Md Nor, Jalan Ikan Jelawat",,3.13193,101.771255,1,,0,
1102,1002894,"Rumah No.149, Jalan Ikan Jelawat",,3.132025,101.76884,1,,0,
1103,1003282,"SRK Ampang Campuran (2), Jalan Merdeka",,3.133921,101.76811,1,,0,
1106,1000967,"Hab Bas Sri Nilam (opp.), Jalan Wawasan",,3.139638,101.7695,1,,0,
1107,1003283,"SRK Ampang Campuran (1), Jalan Merdeka",,3.133542,101.76858,1,,0,
1108,1003737,"Surau, Jalan Ikan Jelawat",,3.132176,101.76879,1,,0,
1109,1001315,"Kedai Makan Md Nor (1), Jalan Ikan Jelawat",,3.132001,101.77125,1,,0,
1110,1003724,"Surau Baitul Islah (1), Jalan 1/1",,3.130032,101.77191,1,,0,
1111,1003803,"Tadika Kemas, Jalan Tasik Tambahan 1",,3.129,101.773445,1,,0,
1112,1002797,"Restoran Shiraj, Jalan Tasik Tambahan 1",,3.129344,101.775856,1,,0,
1113,1001925,"Masjid, Jalan Tasik Tambahan 1",,3.128441,101.77749,1,,0,
1121,1003220,"Shell Pandan Mewah, Jalan Pandan Mewah 1",,3.12449,101.762726,1,,0,
1122,1001647,"Kondo, Jalan Pandan Mewah 1",,3.129073,101.76296,1,,0,
1123,1000963,"Hab Bas Lembah Jaya Utara, Jalan Bukit Belacan",,3.149499,101.791115,1,,0,
1124,1001149,"Kampung Lembah Jaya Selatan, Jalan Bukit Belacan",,3.146688,101.78803,1,,0,
1125,1003844,"Tangki Air, Lembah Jaya Selatan",,3.141254,101.78241,1,,0,
1126,1000767,"Taman Sri Intan, Lembah Jaya Selatan",,3.139162,101.7818,1,,0,
1127,1002743,"Restoran Fatimah Gaos, Lembah Jaya Selatan",,3.138877,101.78405,1,,0,
1128,1003464,"Simpang Jalan 7, Jalan Lembah Jaya Selatan",,3.141052,101.78406,1,,0,
1129,1001763,"Loji (2), Jalan Lembah Jaya Selatan",,3.1415,101.78274,1,,0,
1130,1003563,"Simpang Tiga, Jalan Lembah Jaya Selatan",,3.142945,101.78124,1,,0,
1131,1001283,"Kedai Hardware (2), Jalan Ampang",,3.143195,101.77898,1,,0,
1133,1003581,"Simpang Taman Watan, Jalan Ampang",,3.143215,101.77494,1,,0,
1134,1001254,"Kedai Baiki Barang Letrik, Jalan Ampang",,3.143238,101.773445,1,,0,
1135,1003514,"Simpang Kosas, Jalan Ampang",,3.144523,101.77078,1,,0,
1137,1001619,"Kompleks Campbell, Jalan Dang Wangi",,3.156954,101.69743,1,,0,
1138,1003580,"Simpang Taman Watan (opp.), Jalan Ampang",,3.143365,101.77457,1,,0,
1139,1000853,"Gerai Taman Bukit Ampang, Jalan Ampang",,3.143297,101.77619,1,,0,
1140,1001284,"Kedai Hardware (1), Jalan Ampang",,3.143331,101.77916,1,,0,
1141,1003562,"Simpang Lembah Jaya Selatan, Jalan Bukit Belacan",,3.143438,101.78083,1,,0,
1142,1003837,"Tangki Air, Jalan Lembah Jaya Selatan",,3.141089,101.78413,1,,0,
1143,1002744,"Restoran Fatimah Gaos (opp.), Lembah Jaya Selatan",,3.138936,101.78414,1,,0,
1144,1000766,"Flat Sri Intan, Lembah Jaya Selatan",,3.139195,101.78177,1,,0,
1145,1001148,"Flat Lembah Jaya Selatan, Jalan Bukit Belacan",,3.146345,101.78759,1,,0,
1146,1000360,"Bulatan Kampung Pandan, Jalan Kampung Pandan",,3.137597,101.724236,1,,0,
1147,1002491,"Petronas, Jalan Tun Razak",,3.136542,101.71928,1,,0,
1148,1001846,"Majestic / Stesen LRT Pudu, Jalan Cheras",,3.136304,101.711624,1,,0,
1149,1000250,"Penjara Pudu, Jalan Pudu",,3.139402,101.70961,1,,0,
1150,1002011,"Menara Maybank, Jalan Tun Perak",,3.146416,101.69959,1,,0,
1151,1003928,"Berjaya Times Square, Jalan Pudu",,3.140082,101.709816,1,,0,
1152,1001847,"Majestic, Jalan Pudu",,3.136598,101.7117,1,,0,
1153,1000713,"Flat Desa Pandan, Jalan Kampung Pandan",,3.144767,101.73357,1,,0,
1154,1003991,"Taman Kencana Trafik Light, Jalan Bunga Raya",,3.119405,101.75098,1,,0,
1155,1003057,"Rumah Teres Taman Kencana, Jalan Bunga Raya",,3.119365,101.74872,1,,0,
1156,1000701,"Flat Cheras Indah, MRR2",,3.121645,101.74658,1,,0,
1157,1000234,"Bawah Jejambat, MRR2",,3.124467,101.746735,1,,0,
1158,1003244,"Shell Taman Bakti, Jalan Pandan 1",,3.137014,101.74351,1,,0,
1159,1002586,"Pondok Polis, Jalan Pandan 1",,3.136056,101.7413,1,,0,
1160,1000509,"Cuci Kereta, Jalan Pandan 1",,3.134983,101.73858,1,,0,
1161,1004183,"Used Cars, Jalan Pandan I",,3.134333,101.737045,1,,0,
1162,1002054,"Berjaya Times Square (opp.), Jalan Imbi",,3.143066,101.70975,1,,0,
1163,1002566,"Plaza Imbi, Jalan Imbi",,3.143325,101.710686,1,,0,
1164,1001998,"Menara Boustead, Jalan Raja Chulan",,3.150202,101.70917,1,,0,
1165,1000076,"Menara MPL, Jalan Raja Chulan",,3.150578,101.707344,1,,0,
1166,1004230,"Wisma Budiman, Jalan Raja Chulan",,3.149292,101.70197,1,,0,
1167,1004247,"TM, Jalan Raja Chulan",,3.148739,101.69978,1,,0,
1168,1001973,"Maybank, Jalan Yap Ah Loy",,3.146991,101.69715,1,,0,
1170,1002007,"Menara KL, Jalan Raja Chulan",,3.150408,101.70509,1,,0,
1175,1000464,"Casaria (opp.), Jalan Jejaka",,3.132579,101.734566,1,,0,
1176,1003839,"Tangki Air, Jalan Pandan 1",,3.134818,101.737724,1,,0,
1177,1001263,"Kedai Buah, Jalan Pandan 1",,3.136147,101.74098,1,,0,
1178,1001034,"Jejambat, Jalan Lingkaran Tengah 2",,3.131777,101.74629,1,,0,
1179,1000702,"Flat Cheras Indah (1), MRR2",,3.124832,101.747055,1,,0,
1180,1003522,"Simpang Stesen LRT Cempaka, Jalan Pandan Indah 6/1",,3.136366,101.75319,1,,0,
1181,1001278,"Kedai Goreng Pisang, Jalan AU3/12",,3.18424,101.75583,1,,0,
1182,1001311,"Kedai Makan, Jalan AU3/12",,3.183106,101.75801,1,,0,
1183,1000872,"Glaxo Smith & Klien (2), Jalan Enggang",,3.178517,101.7564,1,,0,
1184,1002656,"Pusat Akuarium, MRR2",,3.173892,101.75653,1,,0,
1185,1001043,"Jejantas, MRR2",,3.168275,101.75377,1,,0,
1186,1001695,"Kuala Ampang, MRR2",,3.163944,101.752754,1,,0,
1187,1002050,"Mobil, MRR2",,3.160577,101.75108,1,,0,
1188,1000087,"Hospital Ampang Puteri, Jalan Memanda 9",,3.159677,101.75096,1,,0,
1189,1000239,"BB Bagus Servis, MRR2",,3.159793,101.749825,1,,0,
1190,1001694,"Kuala Ampang (1), MRR2",,3.164423,101.75263,1,,0,
1191,1002676,"Pusat Methodist, MRR2",,3.167969,101.75341,1,,0,
1192,1001044,"Jejantas (1), MRR2",,3.173775,101.75605,1,,0,
1193,1000871,"Glaxo Smith & Klien, Jalan Enggang",,3.17851,101.75638,1,,0,
1194,1001279,"Kedai Goreng Pisang (1), Jalan AU3/12",,3.183086,101.75786,1,,0,
1195,1001433,"Kampung Klang Gate (opp.), MRR2",,3.212773,101.743065,1,,0,
1196,1003413,"SMK Wangsa Melawati, MRR2",,3.215212,101.739395,1,,0,
1197,1002646,"PULAPOT, Jalan Genting Kelang",,3.215515,101.73503,1,,0,
1198,1001606,"Kolej TAR (opp.), Jalan Genting Kelang",,3.214476,101.73233,1,,0,
1199,1003958,"Taman Bunga Raya (opp.), Jalan Genting Kelang",,3.211131,101.729675,1,,0,
1200,1000760,"Flat PPR Sungai Bunus, Jalan Ayer Keroh",,3.18808,101.72142,1,,0,
1201,1002366,"Pekan Ayer Panas, Jalan Ayer Jerneh",,3.18881,101.7196,1,,0,
1202,1002268,"Pasar, Jalan Ayer Jerneh",,3.18874,101.71816,1,,0,
1203,1001772,"Simpang Lorong Ayer Panas 2, Jalan Ayer Panas",,3.18878,101.71668,1,,0,
1204,1003101,"SR (A) Al Jammiyah (2), Jalan Ayer Panas",,3.18914,101.71523,1,,0,
1205,1003733,"Surau, Jalan Ayer Panas",,3.18975,101.71392,1,,0,
1206,1003772,"Tadika Ayer Panas (2), Jalan Ayer Panas",,3.19084,101.71266,1,,0,
1207,1002577,"Plaza Rah (2), Jalan Raja Abdullah",,3.167375,101.702965,1,,0,
1208,1001929,"Masjid Kampung Baru, Jalan Raja Abdullah",,3.16485,101.70295,1,,0,
1209,1001422,"Kampung Baru Car Care, Jalan Raja Abdullah",,3.16166,101.70276,1,,0,
1210,1002001,"Menara DBKL (opp.), Jalan Raja Abdullah",,3.15986,101.70219,1,,0,
1211,1002827,"Bangunan RKT (2), Jalan Raja Abdullah",,3.15648,101.70108,1,,0,
1212,1002826,"Bangunan RKT (1), Jalan Raja Abdullah",,3.156702,101.70093,1,,0,
1213,1003369,"SME Bank, Jalan Raja Abdullah",,3.158055,101.70131,1,,0,
1214,1002000,"Menara DBKL, Jalan Raja Abdullah",,3.159563,101.701805,1,,0,
1215,1003388,"SMK Puteri Wilayah, Jalan Raja Abdullah",,3.162004,101.70261,1,,0,
1216,1002637,"Public Bank, Jalan Raja Abdullah",,3.16505,101.70278,1,,0,
1217,1002576,"Plaza Rah (1), Jalan Raja Abdullah",,3.166776,101.702965,1,,0,
1218,1002839,"Rumah 148, Jalan Ayer Panas",,3.191671,101.71072,1,,0,
1219,1003773,"Tadika Ayer Panas (1), Jalan Ayer Panas",,3.190997,101.71287,1,,0,
1220,1003100,"SR (A) Al Jammiyah (1), Jalan Ayer Panas",,3.190018,101.71397,1,,0,
1221,1001773,"Simpang Lorong Ayer Panas 2 (1), Jalan Ayer Panas",,3.188963,101.71688,1,,0,
1222,1002367,"Pekan Ayer Panas, Jalan Ayer Keroh",,3.188999,101.71918,1,,0,
1223,1000759,"Flat PPR Sungai Bunus (1), Jalan Ayer Keroh",,3.18876,101.72137,1,,0,
1224,1000965,"Hab Bas Pandan Mewah, Jalan Pandan Mewah",,3.126492,101.76823,1,,0,
1225,1001137,Jalan Mewah 3,,3.126925,101.765305,1,,0,
1226,1000921,"Hospital Ampang (1), Jalan Pandan Mewah",,3.12698,101.76395,1,,0,
1227,1002689,"Puteri Park Plaza (2), Jalan Teratai 1/2",,3.120533,101.76357,1,,0,
1228,1001576,"Klinik Wan Julia, Jalan Taman Putera",,3.120866,101.76632,1,,0,
1229,1003034,"Rumah Teres, Jalan Tasik Tambahan 1",,3.123753,101.768234,1,,0,
1230,1004219,"Warung Nasi Lemak, Jalan Tasek Tambahan 1",,3.121915,101.76854,1,,0,
1231,1001558,"Klinik Makmor, Jalan Tasik Tambahan 1",,3.126314,101.769066,1,,0,
1232,1001767,"Loji, Jalan Tasik Tambahan 1",,3.127088,101.77016,1,,0,
1233,1002705,"Ramzan Corner, Jalan Tasik Tambahan 1",,3.128369,101.77182,1,,0,
1234,1001768,"Loji (opp.), Jalan Tasik Tambahan 1",,3.126817,101.77022,1,,0,
1235,1001559,"Klinik Makmor (opp.), Jalan Tasik Tambahan 1",,3.126053,101.769035,1,,0,
1236,1003509,"Simpang Jalan Tasik Tambahan 3, Jalan Tasik Tambahan 1",,3.123466,101.76833,1,,0,
1237,1003876,"Telefon Awam, Jalan Tasik Tambahan 1",,3.122095,101.768524,1,,0,
1238,1001577,"Klinik Wan Julia (opp.), Jalan Taman Putera",,3.120769,101.766594,1,,0,
1239,1000640,"Esso Taman Putera, Jalan Taman Putera",,3.120489,101.764435,1,,0,
1240,1000920,"Hospital Ampang, Jalan Pandan Mewah",,3.127054,101.76368,1,,0,
1241,1000971,Hab Bas Taman Mulia Jaya,,3.131949,101.78806,1,,0,
1242,1000717,"Flat Taman Mulia Jaya, Jalan Mulia",,3.133398,101.788315,1,,0,
1243,1003462,"Simpang Jalan Indah 7 (3), Jalan Ampang Indah",,3.133084,101.78508,1,,0,
1244,1001349,"Kedai Runcit, Jalan Indah 7",,3.13286,101.78427,1,,0,
1245,1003794,"Tadika (2), Jalan Indah 7",,3.132644,101.78168,1,,0,
1246,1002935,"Rumah No.39, Jalan Permai H",,3.131565,101.78116,1,,0,
1247,1001712,"Kuil, Jalan Permai H",,3.130008,101.78109,1,,0,
1248,1002385,"Pekan Tasik Permai (2), Jalan Besar Permai",,3.127871,101.78037,1,,0,
1249,1002864,"Rumah Kedai (2), Jalan Merdeka",,3.135052,101.76595,1,,0,
1250,1001301,"Kedai Kopi Yau Loy, Jalan Merdeka",,3.135415,101.76456,1,,0,
1251,1002816,"Restoran Villa, Jalan Merdeka",,3.136975,101.76429,1,,0,
1252,1000023,"7 Eleven (2), Jalan Merdeka",,3.138622,101.763916,1,,0,
1253,1004118,"Tokong Cina, Jalan Merdeka",,3.141611,101.7648,1,,0,
1254,1003421,"Spektrum (2), Jalan Wawasan 4",,3.145358,101.76507,1,,0,
1255,1003422,"Spektrum (1), Jalan Wawasan 4",,3.145429,101.76535,1,,0,
1256,1004117,"Tokong Cina (opp.), Jalan Merdeka",,3.141895,101.76499,1,,0,
1257,1000005,"7 Eleven (1), Jalan Merdeka",,3.138801,101.76416,1,,0,
1258,1001258,"Kedai Besi, Jalan Merdeka",,3.136112,101.76468,1,,0,
1259,1002863,"Rumah Kedai (1), Jalan Merdeka",,3.135207,101.76604,1,,0,
1260,1002384,"Pekan Tasik Permai (1), Jalan Besar Permai",,3.128102,101.78017,1,,0,
1261,1001711,"Kuil (1), Jalan Permai H",,3.129685,101.78092,1,,0,
1262,1003479,"Simpang Jalan Dagang 18, Jalan Permai H",,3.131734,101.78094,1,,0,
1263,1003795,"Tadika (1), Jalan Indah 7",,3.132845,101.781815,1,,0,
1264,1001348,"Kedai Runcit (1), Jalan Indah 7",,3.133037,101.784256,1,,0,
1265,1003461,"Simpang Jalan Indah 7 (2), Jalan Ampang Indah",,3.133266,101.78499,1,,0,
1266,1000716,"Flat, Jalan Mulia",,3.13349,101.78813,1,,0,
1267,1003460,"Simpang Jalan Indah 7 (1), Jalan Ampang Indah",,3.1338,101.78487,1,,0,
1268,1003466,"Simpang Jalan Indah 9 (2), Jalan Ampang Indah",,3.135683,101.78434,1,,0,
1269,1003791,"Tadika (2), Jalan Ampang Indah",,3.137406,101.78356,1,,0,
1270,1001764,"Loji (1), Jalan Lembah Jaya Selatan",,3.141719,101.78276,1,,0,
1271,1003792,"Tadika (1), Jalan Ampang Indah",,3.137499,101.78377,1,,0,
1272,1003467,"Simpang Jalan Indah 9 (1), Jalan Ampang Indah",,3.135858,101.78443,1,,0,
1273,1003463,"Simpang Jalan Indah 7 (4), Jalan Ampang Indah",,3.133935,101.7851,1,,0,
1274,1003540,"Simpang Sekolah, Jalan Merdeka",,3.134099,101.76763,1,,0,
1275,1000683,"Flat Bayu Murni (1), Jalan Pandan Utama",,3.13368,101.76597,1,,0,
1276,1003823,"Tadika Subuh, Jalan Pandan Muhibbah",,3.127931,101.75663,1,,0,
1277,1002722,"Restoran Al Sharjah (2), Jalan Bunga Mawar 5",,3.126241,101.75612,1,,0,
1278,1000806,"Food Court, Jalan Bunga Mawar 5",,3.12526,101.75531,1,,0,
1279,1003825,"Tadika Twinkle Star (1), Jalan Bunga Mawar 5",,3.12353,101.75524,1,,0,
1280,1003326,"SRK Taman Muda, Jalan Bunga Mawar 5",,3.120508,101.75543,1,,0,
1281,1001481,"Kilang Granit, Jalan Kuari",,3.107922,101.749985,1,,0,
1282,1001839,"Madrasah Amaliah, Jalan Kuari",,3.106886,101.74826,1,,0,
1283,1002738,"Restoran CSL, Jalan Kuari",,3.106346,101.74603,1,,0,
1284,1002394,"Pemborong Binaan, Jalan Kuari",,3.107188,101.74426,1,,0,
1285,1000310,"Bukit A, Jalan Kuari K 4",,3.106867,101.73906,1,,0,
1286,1003725,"Surau Bukit A, Jalan Kuari",,3.106867,101.73796,1,,0,
1287,1003726,"Surau Bukit A Masjid, Jalan Kuari",,3.106248,101.735985,1,,0,
1288,1004136,"Toyota Sales/Servis, Jalan Kuari",,3.10367,101.73348,1,,0,
1289,1002822,"Taman Midah, Jalan Cheras",,3.10342,101.73302,1,,0,
1290,1000819,"Velodrom, Jalan Cheras",,3.110266,101.72978,1,,0,
1291,1001205,"Jusco Maluri (opp.), Jalan Cheras",,3.125064,101.72671,1,,0,
1292,1001526,"Klinik DBKL, Jalan Cheras",,3.126683,101.72353,1,,0,
1293,1001644,"City View, Jalan Cheras",,3.128018,101.72146,1,,0,
1294,1001069,"JKR, Jalan Cheras",,3.129207,101.71979,1,,0,
1295,1002293,"Pasar Pudu (opp.), Jalan Pudu",,3.133355,101.71437,1,,0,
1296,1002286,"Pasar Pudu, Jalan Pudu",,3.133819,101.71408,1,,0,
1297,1000855,"Gereja All Saint, Jalan Cheras",,3.130384,101.71871,1,,0,
1298,1001035,"Dugra Bistro, Jalan Cheras",,3.129012,101.72061,1,,0,
1299,1000666,"Fayathin Food Court, Jalan Cheras",,3.127788,101.72237,1,,0,
1300,1001723,"BHP Taman Pertama, Jalan Cheras",,3.10973,101.73022,1,,0,
1301,1003477,"Simpang Jalan Cheras, Jalan Kuari",,3.103327,101.73369,1,,0,
1302,1001124,"Masjid Kampung Cheras Baru, Jalan Kuari",,3.106491,101.73594,1,,0,
1303,1001125,Jalan Kuari K 5,,3.107029,101.7379,1,,0,
1304,1001285,"Kedai Hardware, Jalan Kuari",,3.107344,101.744354,1,,0,
1305,1002309,"Padang Bola, Jalan Kuari",,3.106512,101.74614,1,,0,
1306,1003185,"Servis Volvo, Jalan Kuari",,3.106925,101.747795,1,,0,
1307,1001286,"Kedai Hardware (1), Jalan Kuari",,3.108154,101.74998,1,,0,
1308,1000874,"Glennview Kondo, Jalan Kuari",,3.110927,101.753494,1,,0,
1309,1003418,"Soon Akuarium, Jalan Kuari",,3.113355,101.755005,1,,0,
1310,1001262,"Kedai Buah, Jalan Bunga Mawar 8",,3.114375,101.75868,1,,0,
1311,1003325,"SRK Taman Muda (opp.), Jalan Bunga Mawar 5",,3.120258,101.755295,1,,0,
1312,1003824,"Tadika Twinkle Star (2), Jalan Bunga Mawar 5",,3.123643,101.75516,1,,0,
1313,1000722,"Flat Lembah Maju, Jalan Bunga Mawar 5",,3.125364,101.75505,1,,0,
1314,1002721,"Restoran Al Sharjah (1), Jalan Bunga Mawar 5",,3.126302,101.755936,1,,0,
1315,1002968,"Rumah No. 9, Jalan Pandan Muhibbah",,3.127878,101.75653,1,,0,
1316,1000682,"Flat Bayu Murni, Jalan Pandan Utama",,3.133763,101.76585,1,,0,
1317,1000080,"SRK Ampang Campuran, Jalan Merdeka",,3.134417,101.76738,1,,0,
1318,1003681,"Bukit Indah, Stand 23, Jalan Bukit Indah Utama",,3.147901,101.77677,1,,0,
1319,1000794,"Flat Taman Kosas, Jalan Indah Utama",,3.147322,101.77621,1,,0,
1320,1003349,"SMK Kosas, Jalan Indah Utama",,3.149601,101.77283,1,,0,
1321,1000566,"Dewan, Jalan Rasmi 14",,3.150754,101.77177,1,,0,
1322,1003150,"Sekolah Agama Pasti Ilmi (2), Jalan Rasmi 14",,3.151816,101.770164,1,,0,
1323,1002898,"Rumah No.15 (2), Jalan Rasmi 14",,3.152877,101.76853,1,,0,
1324,1003989,"Taman Kanak-kanak, Jalan Dedap",,3.154252,101.76774,1,,0,
1325,1004148,"Tudor Court (opp.), Jalan Dedap",,3.156595,101.767105,1,,0,
1326,1003426,"Simpang Anggerik, Jalan Melati",,3.156646,101.76575,1,,0,
1327,1002878,"Rumah Minangkabau, Jalan 12",,3.15619,101.76281,1,,0,
1328,1002808,"Restoran Tawakal, Jalan 12",,3.158637,101.7607,1,,0,
1329,1001573,"Klinik Suria, Jalan 1",,3.160601,101.76021,1,,0,
1330,1000539,"Depan 7 Eleven, Jalan Kolam Air",,3.160493,101.75905,1,,0,
1331,1001863,"MARDEC, Jalan Kolam Air Depan",,3.160233,101.75648,1,,0,
1332,1000086,"Hospital Ampang Puteri, Jalan Kolam Air",,3.160884,101.752235,1,,0,
1333,1000085,"Ampang Point, Jalan Hulu Klang",,3.160238,101.75078,1,,0,
1334,1003192,"Sungai Ampang, Jalan Kolam Air Lama",,3.161024,101.75219,1,,0,
1335,1003097,"Sekolah Antarabangsa, Jalan Kolam Air Lama",,3.160527,101.75558,1,,0,
1336,1000019,"7 Eleven, Jalan Kolam Air Lama",,3.160496,101.7585,1,,0,
1337,1001574,"Klinik Suria (1), Jalan 1",,3.1609,101.76034,1,,0,
1338,1002807,"Restoran Tawakal, Jalan 1",,3.158969,101.76076,1,,0,
1339,1003006,"Rumah Rais Yatim, Jalan 12",,3.15626,101.76317,1,,0,
1340,1003038,"Rumah Teres, Jalan Wira 1",,3.156867,101.76491,1,,0,
1341,1000738,Flat PKNS,,3.156635,101.76716,1,,0,
1342,1004149,"Tudor Court, Jalan Dedap",,3.155657,101.76751,1,,0,
1343,1000089,"Anak, Jalan Dedap Taman Kanak",,3.154518,101.76777,1,,0,
1344,1002897,"Rumah No.15 (1), Jalan Rasmi 14",,3.153148,101.76851,1,,0,
1345,1003151,"Sekolah Agama Pasti Ilmi (1), Jalan Rasmi 14",,3.15195,101.77029,1,,0,
1346,1003812,"Tadika Nur Laila, Jalan Rasmi 14",,3.150788,101.771996,1,,0,
1347,1002970,"Rumah No. 11A, Jalan Bukit Indah Utama",,3.152656,101.77371,1,,0,
1348,1003435,"Simpang Bukit Indah 1/11, Jalan Bukit Indah Utama",,3.155515,101.77393,1,,0,
1349,1000609,"Emerald Hill, Jalan Bukit Indah Utama",,3.156967,101.77588,1,,0,
1350,1003436,"Simpang Bukit Indah 3/11, Jalan Bukit Indah Utama",,3.152709,101.77834,1,,0,
1351,1003783,"Tadika Hunny, Jalan Bukit Indah Utama",,3.150798,101.77825,1,,0,
1352,1001827,"Stesen LRT Sri Rampai, Jalan Wangsa Perdana",,3.198836,101.737526,1,,0,
1353,1004212,"Wangsa Walk, Jalan Wangsa Perdana",,3.19929,101.74146,1,,0,
1354,1000986,"Idaman Pharma, Jalan Wangsa Delima",,3.19908,101.743935,1,,0,
1355,1000459,"Carrefour Wangsa Maju, Jalan Wangsa Delima",,3.197481,101.74333,1,,0,
1356,1000450,"Carrefour Wangsa Maju, Jalan 5/27A",,3.19535,101.74214,1,,0,
1357,1001006,"Institut Terjemahan Negara, Jalan 4/27E",,3.189879,101.735916,1,,0,
1358,1000751,"Flat Seksyen 10 Wangsa Maju (opp.), Jalan 4/27E",,3.18816,101.736336,1,,0,
1359,1003617,"Surau Al Huda Sri Rampai, Jalan 4/27E",,3.187051,101.735756,1,,0,
1360,1000623,"Esso Seksyen 10 Wangsa Maju (opp.), Jalan 26/26",,3.189512,101.73506,1,,0,
1361,1004238,"Wisma Felcra, Jalan Rejang 12",,3.191107,101.733025,1,,0,
1362,1002971,"Rumah Pagar Merah (2), Jalan Rejang 12",,3.191381,101.72981,1,,0,
1363,1003858,"Tasik/Masjid, Jalan 1/26",,3.191911,101.727585,1,,0,
1364,1001121,"Tasik Setapak Jaya, Jalan Kilang",,3.195654,101.72895,1,,0,
1365,1003112,"Sekolah Antarabangsa Sri Utama, Jalan Usahawan 6",,3.198973,101.72507,1,,0,
1366,1003177,"Pusat Servis Honda (opp.), Jalan Usahawan 5",,3.199092,101.72407,1,,0,
1367,1002630,"Proton Edar (opp.), Jalan Usahawan 5",,3.198026,101.72268,1,,0,
1368,1001546,"Klinik Kerajaan Setapak (opp.), Jalan Usahawan",,3.19741,101.719475,1,,0,
1369,1001544,"Klinik Kesihatan Setapak, Jalan Usahawan",,3.197492,101.719696,1,,0,
1370,1003183,"Pusat Servis Proton, Jalan Usahawan 5",,3.19809,101.72244,1,,0,
1371,1003178,"Pusat Servis Honda, Jalan Usahawan 5",,3.19947,101.72419,1,,0,
1372,1003113,"Sekolah Antarabangsa Sri Utama (1), Jalan Usahawan 6",,3.19915,101.72533,1,,0,
1373,1003851,"Sri Rampai Business Park, Jalan Kilang",,3.19792,101.72625,1,,0,
1374,1000782,"Tasik Setapak Jaya (opp.), Jalan Kilang",,3.196245,101.728355,1,,0,
1375,1000010,"Flat Setapak Jaya, Jalan 58/26",,3.19651,101.73105,1,,0,
1376,1002704,"7 Eleven Sri Rampai, Jalan 46/26",,3.19628,101.7323,1,,0,
1377,1002236,"Rampai Court, Jalan 42/26",,3.194899,101.73318,1,,0,
1378,1003859,"7 Eleven Megan Setapak, Jalan 34/26",,3.194422,101.73078,1,,0,
1379,1003850,"Masjid Sri Rampai, Jalan 1/26",,3.19332,101.72805,1,,0,
1380,1002273,"Pasar, Jalan Rejang",,3.19227,101.7278,1,,0,
1381,1002972,"Rumah Pagar Merah (1), Jalan Rejang 12",,3.19157,101.72947,1,,0,
1382,1004237,"Wisma Felcra (opp.), Jalan Rejang 12",,3.1914,101.73285,1,,0,
1383,1000622,"Esso Seksyen 10 Wangsa Maju, Jalan 23/26",,3.189484,101.73523,1,,0,
1384,1003711,"Surau Al Huda (opp.), Jalan 4/27E",,3.187036,101.73593,1,,0,
1385,1003670,"SSO, Jalan 4/27E",,3.1883,101.73633,1,,0,
1386,1003603,"Sri Ayuthaya, Jalan Wangsa Delima",,3.19554,101.74169,1,,0,
1387,1000458,"Carrefour Wangsa Maju (1), Jalan Wangsa Delima",,3.197102,101.74244,1,,0,
1388,1003206,"Shell, Jalan 34/26",,3.196433,101.74492,1,,0,
1389,1000351,"Seksyen 2 Wangsa Maju,Flat Blok G9, Jalan 4/27A",,3.208963,101.73263,1,,0,
1390,1002266,"Pasar, Jalan 4/27A",,3.211284,101.733116,1,,0,
1391,1000349,"Flat Blok E10 (1), Jalan 4/27A",,3.211897,101.735275,1,,0,
